[
  {
    "name": "五四广场",
    "category": "outdoor",
    "duration_minutes": 120,
    "rating": 4.0,
    "lat": 36.06274,
    "lon": 120.384576,
    "description": "这是青岛的一个自然景点五四广场，是一个著名景点 | 位于：东海西路(五四广场地铁站C口步行170米) | 景点类型：风景名胜 | 建议游览时间：2小时",
    "city": "青岛"
  },
  {
    "name": "海滨风景区",
    "category": "outdoor",
    "duration_minutes": 120,
    "rating": 4.0,
    "lat": 36.057782,
    "lon": 120.343211,
    "description": "这是青岛的一个自然景点海滨风景区，是一个著名景点 | 位于：东海西路24号(汇泉广场地铁站C口步行320米) | 景点类型：风景名胜 | 建议游览时间：2小时",
    "city": "青岛"
  },
  {
    "name": "青岛奥帆海洋文化旅游区",
    "category": "outdoor",
    "duration_minutes": 120,
    "rating": 4.0,
    "lat": 36.060279,
    "lon": 120.3905,
    "description": "这是青岛的一个自然景点青岛奥帆海洋文化旅游区，是一个著名景点 | 联系电话：0532-58617801 | 位于：清远路1号 | 景点类型：风景名胜 | 建议游览时间：2小时",
    "city": "青岛"
  },
  {
    "name": "青岛湛山寺",
    "category": "history",
    "duration_minutes": 120,
    "rating": 4.0,
    "lat": 36.064978,
    "lon": 120.36449,
    "description": "这是一个历史悠久的景点青岛湛山寺，是一个著名景点 | 联系电话：0532-83862038 | 位于：芝泉路2号 | 景点类型：风景名胜 | 建议游览时间：2小时",
    "city": "青岛"
  },
  {
    "name": "奥林匹克帆船中心·奥帆海洋文化旅游区",
    "category": "outdoor",
    "duration_minutes": 120,
    "rating": 4.0,
    "lat": 36.054643,
    "lon": 120.395063,
    "description": "这是青岛的一个自然景点奥林匹克帆船中心·奥帆海洋文化旅游区，是一个著名景点 | 联系电话：0532-58617777 | 位于：澳门路86号奥帆中心 | 景点类型：风景名胜 | 建议游览时间：2小时",
    "city": "青岛"
  },
  {
    "name": "八大关风景区",
    "category": "sightseeing",
    "duration_minutes": 120,
    "rating": 4.0,
    "lat": 36.053625,
    "lon": 120.350903,
    "description": "这是青岛的热门景点八大关风景区，是一个著名景点 | 联系电话：0532-82870565 | 位于：武胜关支路10号 | 景点类型：风景名胜 | 建议游览时间：2小时",
    "city": "青岛"
  },
  {
    "name": "太平山中央公园",
    "category": "outdoor",
    "duration_minutes": 120,
    "rating": 4.0,
    "lat": 36.067606,
    "lon": 120.357684,
    "description": "这是青岛的一个自然景点太平山中央公园，是一个著名景点 | 位于：太平山景区内 | 景点类型：风景名胜 | 建议游览时间：2小时",
    "city": "青岛"
  },
  {
    "name": "情人坝",
    "category": "sightseeing",
    "duration_minutes": 120,
    "rating": 4.0,
    "lat": 36.052388,
    "lon": 120.390288,
    "description": "这是青岛的热门景点情人坝，是一个著名景点 | 位于：珠海路街道金湾路7号 | 景点类型：风景名胜 | 建议游览时间：2小时",
    "city": "青岛"
  },
  {
    "name": "青岛中山公园",
    "category": "outdoor",
    "duration_minutes": 120,
    "rating": 4.0,
    "lat": 36.064394,
    "lon": 120.350415,
    "description": "这是青岛的一个自然景点青岛中山公园，是一个著名景点 | 联系电话：0532-57770077 | 位于：八大关街道文登路26号 | 景点类型：风景名胜 | 建议游览时间：2小时",
    "city": "青岛"
  },
  {
    "name": "青岛啤酒博物馆",
    "category": "museum",
    "duration_minutes": 120,
    "rating": 4.0,
    "lat": 36.079106,
    "lon": 120.347318,
    "description": "这是一座青岛的青岛啤酒博物馆，是一个著名景点 | 位于：登州路56-1 | 景点类型：科教文化服务 | 建议游览时间：2小时",
    "city": "青岛"
  },
  {
    "name": "青岛太平角公园",
    "category": "outdoor",
    "duration_minutes": 120,
    "rating": 4.0,
    "lat": 36.053038,
    "lon": 120.360265,
    "description": "这是青岛的一个自然景点青岛太平角公园，是一个著名景点 | 位于：湛山路8号 | 景点类型：风景名胜 | 建议游览时间：2小时",
    "city": "青岛"
  },
  {
    "name": "台东步行街",
    "category": "sightseeing",
    "duration_minutes": 120,
    "rating": 4.0,
    "lat": 36.083505,
    "lon": 120.354123,
    "description": "这是青岛的热门景点台东步行街，是一个著名景点 | 位于：台东三路(台东地铁站E口步行160米) | 景点类型：购物服务 | 建议游览时间：2小时",
    "city": "青岛"
  },
  {
    "name": "燕儿岛智慧公园",
    "category": "outdoor",
    "duration_minutes": 120,
    "rating": 4.0,
    "lat": 36.055267,
    "lon": 120.40571,
    "description": "这是青岛的一个自然景点燕儿岛智慧公园，是一个著名景点 | 位于：珠海路街道澳门路138号 | 景点类型：风景名胜 | 建议游览时间：2小时",
    "city": "青岛"
  },
  {
    "name": "青岛电视塔",
    "category": "history",
    "duration_minutes": 120,
    "rating": 4.0,
    "lat": 36.06907,
    "lon": 120.355368,
    "description": "这是一个历史悠久的景点青岛电视塔，是一个著名景点 | 联系电话：0532-83654020 | 位于：太平山路1号 | 景点类型：风景名胜 | 建议游览时间：2小时",
    "city": "青岛"
  },
  {
    "name": "青岛动物园",
    "category": "outdoor",
    "duration_minutes": 120,
    "rating": 4.0,
    "lat": 36.069562,
    "lon": 120.34996,
    "description": "这是青岛的一个自然景点青岛动物园，是一个著名景点 | 联系电话：0532-82872970 | 位于：延安一路102号(近中山公园) | 景点类型：风景名胜 | 建议游览时间：2小时",
    "city": "青岛"
  },
  {
    "name": "栈桥景区",
    "category": "outdoor",
    "duration_minutes": 120,
    "rating": 4.0,
    "lat": 36.061736,
    "lon": 120.3193,
    "description": "这是青岛的一个自然景点栈桥景区，是一个著名景点 | 联系电话：0532-82884548 | 位于：太平路12号(青岛站地铁站G口步行370米) | 景点类型：风景名胜 | 建议游览时间：2小时",
    "city": "青岛"
  },
  {
    "name": "小鱼山",
    "category": "outdoor",
    "duration_minutes": 120,
    "rating": 4.0,
    "lat": 36.058765,
    "lon": 120.336558,
    "description": "这是青岛的一个自然景点小鱼山，是一个著名景点 | 联系电话：0532-82868532 | 位于：八大关街道福山支路24号 | 景点类型：风景名胜 | 建议游览时间：2小时",
    "city": "青岛"
  },
  {
    "name": "信号山公园",
    "category": "outdoor",
    "duration_minutes": 120,
    "rating": 4.0,
    "lat": 36.066446,
    "lon": 120.331561,
    "description": "这是青岛的一个自然景点信号山公园，是一个著名景点 | 联系电话：0532-66991166 | 位于：龙山路16号甲 | 景点类型：风景名胜 | 建议游览时间：2小时",
    "city": "青岛"
  },
  {
    "name": "青岛市音乐广场",
    "category": "outdoor",
    "duration_minutes": 120,
    "rating": 4.0,
    "lat": 36.058383,
    "lon": 120.381085,
    "description": "这是青岛的一个自然景点青岛市音乐广场，是一个著名景点 | 联系电话：0532-82872937 | 位于：澳门路12号(近五四广场) | 景点类型：风景名胜 | 建议游览时间：2小时",
    "city": "青岛"
  },
  {
    "name": "青岛海底世界",
    "category": "outdoor",
    "duration_minutes": 120,
    "rating": 4.0,
    "lat": 36.057077,
    "lon": 120.33602,
    "description": "这是青岛的一个自然景点青岛海底世界，是一个著名景点 | 联系电话：0532-58617777;0532-82892187 | 位于：莱阳路2号 | 景点类型：风景名胜 | 建议游览时间：2小时",
    "city": "青岛"
  },
  {
    "name": "青岛第一海水浴场",
    "category": "outdoor",
    "duration_minutes": 120,
    "rating": 4.0,
    "lat": 36.057428,
    "lon": 120.341325,
    "description": "这是青岛的一个自然景点青岛第一海水浴场，是一个著名景点 | 联系电话：0532-82963355 | 位于：南海路14号(汇泉广场地铁站C口步行470米) | 景点类型：体育休闲服务 | 建议游览时间：2小时",
    "city": "青岛"
  },
  {
    "name": "青岛第二海水浴场",
    "category": "outdoor",
    "duration_minutes": 120,
    "rating": 4.0,
    "lat": 36.050649,
    "lon": 120.352169,
    "description": "这是青岛的一个自然景点青岛第二海水浴场，是一个著名景点 | 联系电话：0532-66577309 | 位于：山海关路6号(近花石楼) | 景点类型：体育休闲服务 | 建议游览时间：2小时",
    "city": "青岛"
  },
  {
    "name": "比利时领事馆旧址",
    "category": "sightseeing",
    "duration_minutes": 120,
    "rating": 4.0,
    "lat": 36.050459,
    "lon": 120.36036,
    "description": "这是青岛的热门景点比利时领事馆旧址，是一个著名景点 | 位于：太平角一路21号(太平角公园地铁站B口步行480米) | 景点类型：风景名胜 | 建议游览时间：2小时",
    "city": "青岛"
  },
  {
    "name": "海之恋Park",
    "category": "outdoor",
    "duration_minutes": 120,
    "rating": 4.0,
    "lat": 36.065361,
    "lon": 120.434592,
    "description": "这是青岛的一个自然景点海之恋Park，是一个著名景点 | 位于：东海东路与海兴路交叉口 | 景点类型：风景名胜 | 建议游览时间：2小时",
    "city": "青岛"
  },
  {
    "name": "中国人民解放军海军博物馆",
    "category": "museum",
    "duration_minutes": 120,
    "rating": 4.0,
    "lat": 36.054786,
    "lon": 120.327714,
    "description": "这是一座青岛的中国人民解放军海军博物馆，是一个著名景点 | 联系电话：0532-82866787 | 位于：莱阳路8号 | 景点类型：科教文化服务 | 建议游览时间：2小时",
    "city": "青岛"
  },
  {
    "name": "银海大世界",
    "category": "outdoor",
    "duration_minutes": 120,
    "rating": 4.0,
    "lat": 36.057818,
    "lon": 120.422801,
    "description": "这是青岛的一个自然景点银海大世界，是一个著名景点 | 联系电话：13969676988 | 位于：东海中路30号(近银都花园) | 景点类型：风景名胜 | 建议游览时间：2小时",
    "city": "青岛"
  },
  {
    "name": "榉林公园",
    "category": "outdoor",
    "duration_minutes": 120,
    "rating": 4.0,
    "lat": 36.070487,
    "lon": 120.356988,
    "description": "这是青岛的一个自然景点榉林公园，是一个著名景点 | 联系电话：0532-83643831 | 位于：龙潭路西100米 | 景点类型：风景名胜 | 建议游览时间：2小时",
    "city": "青岛"
  },
  {
    "name": "浮山森林公园",
    "category": "outdoor",
    "duration_minutes": 120,
    "rating": 4.0,
    "lat": 36.08929,
    "lon": 120.433328,
    "description": "这是青岛的一个自然景点浮山森林公园，是一个著名景点 | 位于：银川西路 | 景点类型：风景名胜 | 建议游览时间：2小时",
    "city": "青岛"
  },
  {
    "name": "宫崎骏漫画街",
    "category": "history",
    "duration_minutes": 120,
    "rating": 4.0,
    "lat": 36.063232,
    "lon": 120.331135,
    "description": "这是一个历史悠久的景点宫崎骏漫画街，是一个著名景点 | 位于：龙江路与黄县路交叉口西南20米 | 景点类型：风景名胜 | 建议游览时间：2小时",
    "city": "青岛"
  },
  {
    "name": "远洋广场",
    "category": "sightseeing",
    "duration_minutes": 120,
    "rating": 4.0,
    "lat": 36.065139,
    "lon": 120.398464,
    "description": "这是青岛的热门景点远洋广场，是一个著名景点 | 联系电话：0532-85737090 | 位于：香港中路街道香港中路61号 | 景点类型：商务住宅 | 建议游览时间：2小时",
    "city": "青岛"
  },
  {
    "name": "鲁迅公园",
    "category": "outdoor",
    "duration_minutes": 120,
    "rating": 4.0,
    "lat": 36.055007,
    "lon": 120.333117,
    "description": "这是青岛的一个自然景点鲁迅公园，是一个著名景点 | 联系电话：0532-82860760;0532-82868471 | 位于：琴屿路1号 | 景点类型：风景名胜 | 建议游览时间：2小时",
    "city": "青岛"
  },
  {
    "name": "天主教青岛教区圣弥厄尔主教座堂天主堂",
    "category": "sightseeing",
    "duration_minutes": 120,
    "rating": 4.0,
    "lat": 36.068143,
    "lon": 120.320588,
    "description": "这是青岛的热门景点天主教青岛教区圣弥厄尔主教座堂天主堂，是一个著名景点 | 联系电话：0532-82865960 | 位于：浙江路15号 | 景点类型：风景名胜 | 建议游览时间：2小时",
    "city": "青岛"
  },
  {
    "name": "八大关风景区-公主楼",
    "category": "sightseeing",
    "duration_minutes": 120,
    "rating": 4.0,
    "lat": 36.052506,
    "lon": 120.349532,
    "description": "这是青岛的热门景点八大关风景区-公主楼，是一个著名景点 | 位于：八大关街道南区居庸关路10号八大关风景区内 | 景点类型：风景名胜 | 建议游览时间：2小时",
    "city": "青岛"
  },
  {
    "name": "海合安·青岛极地海洋公园",
    "category": "outdoor",
    "duration_minutes": 120,
    "rating": 4.0,
    "lat": 36.069211,
    "lon": 120.442663,
    "description": "这是青岛的一个自然景点海合安·青岛极地海洋公园，是一个著名景点 | 联系电话：0532-80999777 | 位于：东海东路60号 | 景点类型：风景名胜 | 建议游览时间：2小时",
    "city": "青岛"
  },
  {
    "name": "青岛网红墙",
    "category": "sightseeing",
    "duration_minutes": 120,
    "rating": 4.0,
    "lat": 36.061402,
    "lon": 120.331631,
    "description": "这是青岛的热门景点青岛网红墙，是一个著名景点 | 位于：大学路与龙口路交叉口(人民会堂地铁站B口步行170米) | 景点类型：风景名胜 | 建议游览时间：2小时",
    "city": "青岛"
  },
  {
    "name": "青岛市植物园",
    "category": "outdoor",
    "duration_minutes": 120,
    "rating": 4.0,
    "lat": 36.061495,
    "lon": 120.361766,
    "description": "这是青岛的一个自然景点青岛市植物园，是一个著名景点 | 联系电话：0532-83861179;0532-83897907;0532-83879607 | 位于：郧阳路7号 | 景点类型：风景名胜 | 建议游览时间：2小时",
    "city": "青岛"
  },
  {
    "name": "花石楼",
    "category": "sightseeing",
    "duration_minutes": 120,
    "rating": 4.0,
    "lat": 36.050238,
    "lon": 120.353492,
    "description": "这是青岛的热门景点花石楼，是一个著名景点 | 联系电话：0532-83872168 | 位于：黄海路18号 | 景点类型：风景名胜 | 建议游览时间：2小时",
    "city": "青岛"
  },
  {
    "name": "中山公园太平山观光索道",
    "category": "outdoor",
    "duration_minutes": 120,
    "rating": 4.0,
    "lat": 36.067958,
    "lon": 120.357501,
    "description": "这是青岛的一个自然景点中山公园太平山观光索道，是一个著名景点 | 联系电话：4006876588 | 位于：太平山路1号 | 景点类型：风景名胜 | 建议游览时间：2小时",
    "city": "青岛"
  },
  {
    "name": "小青岛公园",
    "category": "outdoor",
    "duration_minutes": 120,
    "rating": 4.0,
    "lat": 36.053098,
    "lon": 120.323783,
    "description": "这是青岛的一个自然景点小青岛公园，是一个著名景点 | 联系电话：0532-82863944 | 位于：琴屿路26号 | 景点类型：风景名胜 | 建议游览时间：2小时",
    "city": "青岛"
  },
  {
    "name": "青岛栈桥广场",
    "category": "history",
    "duration_minutes": 120,
    "rating": 4.0,
    "lat": 36.059561,
    "lon": 120.327439,
    "description": "这是一个历史悠久的景点青岛栈桥广场，是一个著名景点 | 位于：江苏路街道太平路8号(人民会堂地铁站E口步行290米) | 景点类型：购物服务 | 建议游览时间：2小时",
    "city": "青岛"
  },
  {
    "name": "奥帆之星广场",
    "category": "sightseeing",
    "duration_minutes": 120,
    "rating": 4.0,
    "lat": 36.056242,
    "lon": 120.396691,
    "description": "这是青岛的热门景点奥帆之星广场，是一个著名景点 | 位于：澳门路98号(奥帆中心内) | 景点类型：购物服务 | 建议游览时间：2小时",
    "city": "青岛"
  },
  {
    "name": "百花苑",
    "category": "sightseeing",
    "duration_minutes": 120,
    "rating": 4.0,
    "lat": 36.0657,
    "lon": 120.345011,
    "description": "这是青岛的热门景点百花苑，是一个著名景点 | 联系电话：0532-82862461 | 位于：八大关街道八大关街道延安一路55号 | 景点类型：风景名胜 | 建议游览时间：2小时",
    "city": "青岛"
  },
  {
    "name": "青岛德国总督楼旧址博物馆",
    "category": "museum",
    "duration_minutes": 120,
    "rating": 4.0,
    "lat": 36.064939,
    "lon": 120.332953,
    "description": "这是一座青岛的青岛德国总督楼旧址博物馆，是一个著名景点 | 联系电话：0532-82868838 | 位于：龙山路26号(信号山青大附院地铁站B2口步行190米) | 景点类型：风景名胜 | 建议游览时间：2小时",
    "city": "青岛"
  },
  {
    "name": "青岛观音寺",
    "category": "history",
    "duration_minutes": 120,
    "rating": 4.0,
    "lat": 36.093459,
    "lon": 120.397887,
    "description": "这是一个历史悠久的景点青岛观音寺，是一个著名景点 | 联系电话：0532-82960939 | 位于：辽源路街道福州北路84号 | 景点类型：风景名胜 | 建议游览时间：2小时",
    "city": "青岛"
  },
  {
    "name": "汇泉广场",
    "category": "outdoor",
    "duration_minutes": 120,
    "rating": 4.0,
    "lat": 36.058387,
    "lon": 120.345606,
    "description": "这是青岛的一个自然景点汇泉广场，是一个著名景点 | 位于：文登路1号(汇泉广场地铁站B口步行390米) | 景点类型：风景名胜 | 建议游览时间：2小时",
    "city": "青岛"
  },
  {
    "name": "青岛革命烈士纪念馆",
    "category": "history",
    "duration_minutes": 120,
    "rating": 4.0,
    "lat": 36.066579,
    "lon": 120.363179,
    "description": "这是一个历史悠久的景点青岛革命烈士纪念馆，是一个著名景点 | 联系电话：0532-83863750;0532-83861236 | 位于：芝泉路6号 | 景点类型：风景名胜 | 建议游览时间：2小时",
    "city": "青岛"
  },
  {
    "name": "八大别墅区-蝴蝶楼",
    "category": "sightseeing",
    "duration_minutes": 120,
    "rating": 4.0,
    "lat": 36.049924,
    "lon": 120.345998,
    "description": "这是青岛的热门景点八大别墅区-蝴蝶楼，是一个著名景点 | 联系电话：0532-83869357 | 位于：山海关路21号 | 景点类型：风景名胜 | 建议游览时间：2小时",
    "city": "青岛"
  },
  {
    "name": "中国雕塑院·青岛雕塑园",
    "category": "sightseeing",
    "duration_minutes": 120,
    "rating": 4.0,
    "lat": 36.079683,
    "lon": 120.454678,
    "description": "这是青岛的热门景点中国雕塑院·青岛雕塑园，是一个著名景点 | 联系电话：0532-88707755 | 位于：东海东路66号(东海东路和海青路交叉口) | 景点类型：风景名胜 | 建议游览时间：2小时",
    "city": "青岛"
  },
  {
    "name": "云上艺术中心",
    "category": "sightseeing",
    "duration_minutes": 120,
    "rating": 4.0,
    "lat": 36.056742,
    "lon": 120.369609,
    "description": "这是青岛的热门景点云上艺术中心，是一个著名景点 | 联系电话：0532-55958888 | 位于：湛山街道香港西路48号海天中心T2塔楼80层 | 景点类型：商务住宅 | 建议游览时间：2小时",
    "city": "青岛"
  },
  {
    "name": "燕岛山公园",
    "category": "outdoor",
    "duration_minutes": 120,
    "rating": 4.0,
    "lat": 36.053777,
    "lon": 120.396421,
    "description": "这是青岛的一个自然景点燕岛山公园，是一个著名景点 | 位于：青岛奥帆中心景区东侧 | 景点类型：风景名胜 | 建议游览时间：2小时",
    "city": "青岛"
  },
  {
    "name": "青岛石老人海水浴场",
    "category": "outdoor",
    "duration_minutes": 120,
    "rating": 4.0,
    "lat": 36.09168,
    "lon": 120.46801,
    "description": "这是青岛的一个自然景点青岛石老人海水浴场，是一个著名景点 | 联系电话：0532-88890308 | 位于：海口路287号 | 景点类型：体育休闲服务 | 建议游览时间：2小时",
    "city": "青岛"
  },
  {
    "name": "孤独的树",
    "category": "sightseeing",
    "duration_minutes": 120,
    "rating": 4.0,
    "lat": 36.054469,
    "lon": 120.330968,
    "description": "这是青岛的热门景点孤独的树，是一个著名景点 | 位于：琴屿路与滨海绿道交叉口西100米 | 景点类型：风景名胜 | 建议游览时间：2小时",
    "city": "青岛"
  },
  {
    "name": "青岛北岭山森林公园",
    "category": "outdoor",
    "duration_minutes": 120,
    "rating": 4.0,
    "lat": 36.119684,
    "lon": 120.370176,
    "description": "这是青岛的一个自然景点青岛北岭山森林公园，是一个著名景点 | 联系电话：0532-84851988 | 位于：南丰路 | 景点类型：风景名胜 | 建议游览时间：2小时",
    "city": "青岛"
  },
  {
    "name": "奥帆帆码头",
    "category": "sightseeing",
    "duration_minutes": 120,
    "rating": 4.0,
    "lat": 36.059595,
    "lon": 120.391207,
    "description": "这是青岛的热门景点奥帆帆码头，是一个著名景点 | 位于：奥林匹克帆船中心·奥帆海洋文化旅游区(西北角) | 景点类型：风景名胜 | 建议游览时间：2小时",
    "city": "青岛"
  },
  {
    "name": "奥帆博物馆",
    "category": "museum",
    "duration_minutes": 120,
    "rating": 4.0,
    "lat": 36.053175,
    "lon": 120.394317,
    "description": "这是一座青岛的奥帆博物馆，是一个著名景点 | 联系电话：0532-66562015 | 位于：奥帆路3号 | 景点类型：科教文化服务 | 建议游览时间：2小时",
    "city": "青岛"
  },
  {
    "name": "太平山",
    "category": "outdoor",
    "duration_minutes": 120,
    "rating": 4.0,
    "lat": 36.065367,
    "lon": 120.359331,
    "description": "这是青岛的一个自然景点太平山，是一个著名景点 | 位于：八大关街道文登路28号青岛中山公园内 | 景点类型：地名地址信息 | 建议游览时间：2小时",
    "city": "青岛"
  },
  {
    "name": "青岛市海泊河公园",
    "category": "outdoor",
    "duration_minutes": 120,
    "rating": 4.0,
    "lat": 36.095879,
    "lon": 120.356415,
    "description": "这是青岛的一个自然景点青岛市海泊河公园，是一个著名景点 | 联系电话：0532-83716454 | 位于：康宁路1号(海泊桥海慈医疗地铁站A口步行210米) | 景点类型：风景名胜 | 建议游览时间：2小时",
    "city": "青岛"
  },
  {
    "name": "孤独的树",
    "category": "sightseeing",
    "duration_minutes": 120,
    "rating": 4.0,
    "lat": 36.052909,
    "lon": 120.429805,
    "description": "这是青岛的热门景点孤独的树，是一个著名景点 | 位于：香港东路6号 | 景点类型：风景名胜 | 建议游览时间：2小时",
    "city": "青岛"
  },
  {
    "name": "青岛清真寺",
    "category": "sightseeing",
    "duration_minutes": 120,
    "rating": 4.0,
    "lat": 36.097677,
    "lon": 120.412533,
    "description": "这是青岛的热门景点青岛清真寺，是一个著名景点 | 联系电话：0532-82865537 | 位于：同安路579号 | 景点类型：风景名胜 | 建议游览时间：2小时",
    "city": "青岛"
  },
  {
    "name": "海趣园",
    "category": "outdoor",
    "duration_minutes": 120,
    "rating": 4.0,
    "lat": 36.058278,
    "lon": 120.375544,
    "description": "这是青岛的一个自然景点海趣园，是一个著名景点 | 位于：东海西路8号(延安三路地铁站C口步行390米) | 景点类型：风景名胜 | 建议游览时间：2小时",
    "city": "青岛"
  },
  {
    "name": "巧克巧蔻巧克力博物馆",
    "category": "museum",
    "duration_minutes": 120,
    "rating": 4.0,
    "lat": 36.070886,
    "lon": 120.318804,
    "description": "这是一座青岛的巧克巧蔻巧克力博物馆，是一个著名景点 | 联系电话：17657037665 | 位于：中山路139号(中山路地铁站D口步行230米) | 景点类型：科教文化服务 | 建议游览时间：2小时",
    "city": "青岛"
  },
  {
    "name": "青岛奥帆中心游艇会码头",
    "category": "sightseeing",
    "duration_minutes": 120,
    "rating": 4.0,
    "lat": 36.058368,
    "lon": 120.39402,
    "description": "这是青岛的热门景点青岛奥帆中心游艇会码头，是一个著名景点 | 联系电话：0532-85733357 | 位于：澳门路86号奥帆中心内 | 景点类型：风景名胜 | 建议游览时间：2小时",
    "city": "青岛"
  },
  {
    "name": "上街里·三江里",
    "category": "outdoor",
    "duration_minutes": 120,
    "rating": 4.0,
    "lat": 36.070141,
    "lon": 120.323129,
    "description": "这是青岛的一个自然景点上街里·三江里，是一个著名景点 | 位于：中山路街道济宁路24号(中山路地铁站B口步行350米) | 景点类型：风景名胜 | 建议游览时间：2小时",
    "city": "青岛"
  },
  {
    "name": "八大湖公园",
    "category": "outdoor",
    "duration_minutes": 120,
    "rating": 4.0,
    "lat": 36.079107,
    "lon": 120.389448,
    "description": "这是青岛的一个自然景点八大湖公园，是一个著名景点 | 位于：太湖路19号(宁夏路地铁站C口步行470米) | 景点类型：风景名胜 | 建议游览时间：2小时",
    "city": "青岛"
  },
  {
    "name": "观海木栈道",
    "category": "outdoor",
    "duration_minutes": 120,
    "rating": 4.0,
    "lat": 36.054297,
    "lon": 120.406252,
    "description": "这是青岛的一个自然景点观海木栈道，是一个著名景点 | 位于：珠海路街道澳门路138号燕儿岛智慧公园(东南角) | 景点类型：风景名胜 | 建议游览时间：2小时",
    "city": "青岛"
  },
  {
    "name": "青岛德国监狱旧址博物馆",
    "category": "museum",
    "duration_minutes": 120,
    "rating": 4.0,
    "lat": 36.061521,
    "lon": 120.32873,
    "description": "这是一座青岛的青岛德国监狱旧址博物馆，是一个著名景点 | 联系电话：0532-82876273 | 位于：常州路23号 | 景点类型：科教文化服务 | 建议游览时间：2小时",
    "city": "青岛"
  },
  {
    "name": "彩虹桥(滨海步行道)",
    "category": "outdoor",
    "duration_minutes": 120,
    "rating": 4.0,
    "lat": 36.060502,
    "lon": 120.389779,
    "description": "这是青岛的一个自然景点彩虹桥(滨海步行道)，是一个著名景点 | 位于：澳门路与清远路交叉口西南60米 | 景点类型：风景名胜 | 建议游览时间：2小时",
    "city": "青岛"
  },
  {
    "name": "青岛浮山湾灯光秀",
    "category": "outdoor",
    "duration_minutes": 120,
    "rating": 4.0,
    "lat": 36.057758,
    "lon": 120.380684,
    "description": "这是青岛的一个自然景点青岛浮山湾灯光秀，是一个著名景点 | 位于：湛山街道浮山湾 | 景点类型：风景名胜 | 建议游览时间：2小时",
    "city": "青岛"
  },
  {
    "name": "老舍故居",
    "category": "history",
    "duration_minutes": 120,
    "rating": 4.0,
    "lat": 36.062297,
    "lon": 120.331836,
    "description": "这是一个历史悠久的景点老舍故居，是一个著名景点 | 联系电话：0532-82867580 | 位于：黄县路12号(人民会堂地铁站B口步行350米) | 景点类型：风景名胜 | 建议游览时间：2小时",
    "city": "青岛"
  },
  {
    "name": "青岛基督教堂",
    "category": "sightseeing",
    "duration_minutes": 120,
    "rating": 4.0,
    "lat": 36.065159,
    "lon": 120.327975,
    "description": "这是青岛的热门景点青岛基督教堂，是一个著名景点 | 联系电话：0532-82865970 | 位于：江苏路15号(近沂水路) | 景点类型：风景名胜 | 建议游览时间：2小时",
    "city": "青岛"
  },
  {
    "name": "中国(青岛)水彩画博物馆(筹)",
    "category": "museum",
    "duration_minutes": 120,
    "rating": 4.0,
    "lat": 36.061677,
    "lon": 120.332632,
    "description": "这是一座青岛的中国(青岛)水彩画博物馆(筹)，是一个著名景点 | 联系电话：0532-82868762;0532-82888886 | 位于：金口路街道大学路7号(人民会堂地铁站B口步行280米) | 景点类型：科教文化服务 | 建议游览时间：2小时",
    "city": "青岛"
  },
  {
    "name": "中国水准零点景区",
    "category": "sightseeing",
    "duration_minutes": 120,
    "rating": 4.0,
    "lat": 36.055614,
    "lon": 120.422936,
    "description": "这是青岛的热门景点中国水准零点景区，是一个著名景点 | 联系电话：13969676988 | 位于：东海中路30号银海大世界院内 | 景点类型：风景名胜 | 建议游览时间：2小时",
    "city": "青岛"
  },
  {
    "name": "观象山公园",
    "category": "outdoor",
    "duration_minutes": 120,
    "rating": 4.0,
    "lat": 36.070221,
    "lon": 120.3267,
    "description": "这是青岛的一个自然景点观象山公园，是一个著名景点 | 位于：江苏路街道江苏路街道观象二路21号 | 景点类型：风景名胜 | 建议游览时间：2小时",
    "city": "青岛"
  },
  {
    "name": "青小园小麦岛入口东园",
    "category": "outdoor",
    "duration_minutes": 120,
    "rating": 4.0,
    "lat": 36.058557,
    "lon": 120.429438,
    "description": "这是青岛的一个自然景点青小园小麦岛入口东园，是一个著名景点 | 位于：麦岛路与东海中路交叉口南340米 | 景点类型：风景名胜 | 建议游览时间：2小时",
    "city": "青岛"
  },
  {
    "name": "中山公园-小西湖",
    "category": "outdoor",
    "duration_minutes": 120,
    "rating": 4.0,
    "lat": 36.063766,
    "lon": 120.345192,
    "description": "这是青岛的一个自然景点中山公园-小西湖，是一个著名景点 | 位于：文登路28号青岛中山公园内(西侧) | 景点类型：风景名胜 | 建议游览时间：2小时",
    "city": "青岛"
  },
  {
    "name": "青岛第一海水浴场-沙滩",
    "category": "outdoor",
    "duration_minutes": 120,
    "rating": 4.0,
    "lat": 36.057009,
    "lon": 120.342208,
    "description": "这是青岛的一个自然景点青岛第一海水浴场-沙滩，是一个著名景点 | 位于：南海路23号(近汇泉湾广场王朝大酒店)青岛第一海水浴场停车场 | 景点类型：风景名胜 | 建议游览时间：2小时",
    "city": "青岛"
  },
  {
    "name": "七观台风景点",
    "category": "sightseeing",
    "duration_minutes": 120,
    "rating": 4.0,
    "lat": 36.083245,
    "lon": 120.440059,
    "description": "这是青岛的热门景点七观台风景点，是一个著名景点 | 位于：御景峰北侧260米 | 景点类型：风景名胜 | 建议游览时间：2小时",
    "city": "青岛"
  },
  {
    "name": "青岛老城文化旅游区",
    "category": "sightseeing",
    "duration_minutes": 120,
    "rating": 4.0,
    "lat": 36.067176,
    "lon": 120.319031,
    "description": "这是青岛的热门景点青岛老城文化旅游区，是一个著名景点 | 位于：曲阜路与中山路交叉口东北60米 | 景点类型：风景名胜 | 建议游览时间：2小时",
    "city": "青岛"
  },
  {
    "name": "劈柴院",
    "category": "sightseeing",
    "duration_minutes": 120,
    "rating": 4.0,
    "lat": 36.071261,
    "lon": 120.31793,
    "description": "这是青岛的热门景点劈柴院，是一个著名景点 | 位于：北京路16号(中山路地铁站D口步行360米) | 景点类型：购物服务 | 建议游览时间：2小时",
    "city": "青岛"
  },
  {
    "name": "燕儿山网红洞",
    "category": "outdoor",
    "duration_minutes": 120,
    "rating": 4.0,
    "lat": 36.059136,
    "lon": 120.415554,
    "description": "这是青岛的一个自然景点燕儿山网红洞，是一个著名景点 | 位于：珠海路街道东海中路103号 | 景点类型：风景名胜 | 建议游览时间：2小时",
    "city": "青岛"
  },
  {
    "name": "海云庵",
    "category": "history",
    "duration_minutes": 120,
    "rating": 4.0,
    "lat": 36.111425,
    "lon": 120.350562,
    "description": "这是一个历史悠久的景点海云庵，是一个著名景点 | 联系电话：0532-86120277 | 位于：民俗小吃街 | 景点类型：风景名胜 | 建议游览时间：2小时",
    "city": "青岛"
  },
  {
    "name": "青岛消防博物馆",
    "category": "museum",
    "duration_minutes": 120,
    "rating": 4.0,
    "lat": 36.079118,
    "lon": 120.384438,
    "description": "这是一座青岛的青岛消防博物馆，是一个著名景点 | 联系电话：0532-81851113 | 位于：金湖路16号 | 景点类型：科教文化服务 | 建议游览时间：2小时",
    "city": "青岛"
  },
  {
    "name": "青岛动物园-西区",
    "category": "sightseeing",
    "duration_minutes": 120,
    "rating": 4.0,
    "lat": 36.068741,
    "lon": 120.348768,
    "description": "这是青岛的热门景点青岛动物园-西区，是一个著名景点 | 联系电话：0532-82872970 | 位于：延安一路102号青岛动物园 | 景点类型：风景名胜 | 建议游览时间：2小时",
    "city": "青岛"
  },
  {
    "name": "康有为故居纪念馆",
    "category": "history",
    "duration_minutes": 120,
    "rating": 4.0,
    "lat": 36.059884,
    "lon": 120.339375,
    "description": "这是一个历史悠久的景点康有为故居纪念馆，是一个著名景点 | 联系电话：0532-82879957;0532-82969239 | 位于：福山支路5号 | 景点类型：风景名胜 | 建议游览时间：2小时",
    "city": "青岛"
  },
  {
    "name": "四方机车公园",
    "category": "outdoor",
    "duration_minutes": 120,
    "rating": 4.0,
    "lat": 36.107126,
    "lon": 120.350331,
    "description": "这是青岛的一个自然景点四方机车公园，是一个著名景点 | 位于：杭州路16号 | 景点类型：风景名胜 | 建议游览时间：2小时",
    "city": "青岛"
  },
  {
    "name": "冰山之角",
    "category": "outdoor",
    "duration_minutes": 120,
    "rating": 4.0,
    "lat": 36.068103,
    "lon": 120.438905,
    "description": "这是青岛的一个自然景点冰山之角，是一个著名景点 | 联系电话：0532-80999066 | 位于：东海东路52号 | 景点类型：风景名胜 | 建议游览时间：2小时",
    "city": "青岛"
  },
  {
    "name": "大鲍岛上街里",
    "category": "sightseeing",
    "duration_minutes": 120,
    "rating": 4.0,
    "lat": 36.074594,
    "lon": 120.321352,
    "description": "这是青岛的热门景点大鲍岛上街里，是一个著名景点 | 联系电话：0532-58587199 | 位于：市场二路振业大厦东侧约30米 | 景点类型：购物服务 | 建议游览时间：2小时",
    "city": "青岛"
  },
  {
    "name": "江西路游园",
    "category": "outdoor",
    "duration_minutes": 120,
    "rating": 4.0,
    "lat": 36.072002,
    "lon": 120.37079,
    "description": "这是青岛的一个自然景点江西路游园，是一个著名景点 | 位于：江西路18-24附近(芝泉路地铁站B口步行380米) | 景点类型：风景名胜 | 建议游览时间：2小时",
    "city": "青岛"
  },
  {
    "name": "银海游艇",
    "category": "outdoor",
    "duration_minutes": 120,
    "rating": 4.0,
    "lat": 36.05738,
    "lon": 120.42409,
    "description": "这是青岛的一个自然景点银海游艇，是一个著名景点 | 联系电话：0532-85880000;12301 | 位于：东海中路30号 | 景点类型：风景名胜 | 建议游览时间：2小时",
    "city": "青岛"
  },
  {
    "name": "五四广场五月的风",
    "category": "sightseeing",
    "duration_minutes": 120,
    "rating": 4.0,
    "lat": 36.061427,
    "lon": 120.385265,
    "description": "这是青岛的热门景点五四广场五月的风，是一个著名景点 | 位于：东海西路35号 | 景点类型：风景名胜 | 建议游览时间：2小时",
    "city": "青岛"
  },
  {
    "name": "青岛第三海水浴场(暂停营业)",
    "category": "outdoor",
    "duration_minutes": 120,
    "rating": 4.0,
    "lat": 36.050451,
    "lon": 120.365486,
    "description": "这是青岛的一个自然景点青岛第三海水浴场(暂停营业)，是一个著名景点 | 位于：湛山五路5号 | 景点类型：体育休闲服务 | 建议游览时间：2小时",
    "city": "青岛"
  },
  {
    "name": "小麦岛公园",
    "category": "outdoor",
    "duration_minutes": 120,
    "rating": 4.0,
    "lat": 36.054245,
    "lon": 120.431045,
    "description": "这是青岛的一个自然景点小麦岛公园，是一个著名景点 | 位于：中韩街道麦岛 | 景点类型：风景名胜 | 建议游览时间：2小时",
    "city": "青岛"
  },
  {
    "name": "崂山环海线(暂停营业)",
    "category": "outdoor",
    "duration_minutes": 120,
    "rating": 4.0,
    "lat": 36.060893,
    "lon": 120.381867,
    "description": "这是青岛的一个自然景点崂山环海线(暂停营业)，是一个著名景点 | 联系电话：13006500252 | 位于：澳门路13号 | 景点类型：生活服务 | 建议游览时间：2小时",
    "city": "青岛"
  },
  {
    "name": "青岛山一战遗址公园(暂停开放)",
    "category": "outdoor",
    "duration_minutes": 120,
    "rating": 4.0,
    "lat": 36.069595,
    "lon": 120.34313,
    "description": "这是青岛的一个自然景点青岛山一战遗址公园(暂停开放)，是一个著名景点 | 联系电话：0532-82791918;0532-82873567 | 位于：八大关街道京山路26号 | 景点类型：风景名胜 | 建议游览时间：2小时",
    "city": "青岛"
  },
  {
    "name": "灯塔",
    "category": "history",
    "duration_minutes": 120,
    "rating": 4.0,
    "lat": 36.052805,
    "lon": 120.387676,
    "description": "这是一个历史悠久的景点灯塔，是一个著名景点 | 位于：东海西路24号海滨风景区内(东侧) | 景点类型：风景名胜 | 建议游览时间：2小时",
    "city": "青岛"
  },
  {
    "name": "青岛一战遗址博物馆(暂停开放)",
    "category": "museum",
    "duration_minutes": 120,
    "rating": 4.0,
    "lat": 36.068849,
    "lon": 120.345103,
    "description": "这是一座青岛的青岛一战遗址博物馆(暂停开放)，是一个著名景点 | 联系电话：0532-82791918 | 位于：京山路26号 | 景点类型：科教文化服务 | 建议游览时间：2小时",
    "city": "青岛"
  },
  {
    "name": "青岛山炮台遗址(暂停开放)",
    "category": "outdoor",
    "duration_minutes": 120,
    "rating": 4.0,
    "lat": 36.069374,
    "lon": 120.342894,
    "description": "这是青岛的一个自然景点青岛山炮台遗址(暂停开放)，是一个著名景点 | 联系电话：0532-82866672;12301 | 位于：京山路26号 | 景点类型：风景名胜 | 建议游览时间：2小时",
    "city": "青岛"
  },
  {
    "name": "八大峡广场",
    "category": "outdoor",
    "duration_minutes": 120,
    "rating": 4.0,
    "lat": 36.05303,
    "lon": 120.309569,
    "description": "这是青岛的一个自然景点八大峡广场，是一个著名景点 | 联系电话：0532-88627725 | 位于：八大峡街道巫峡路2号 | 景点类型：风景名胜 | 建议游览时间：2小时",
    "city": "青岛"
  },
  {
    "name": "海涛园",
    "category": "outdoor",
    "duration_minutes": 120,
    "rating": 4.0,
    "lat": 36.053577,
    "lon": 120.366757,
    "description": "这是青岛的一个自然景点海涛园，是一个著名景点 | 位于：东海西路 | 景点类型：风景名胜 | 建议游览时间：2小时",
    "city": "青岛"
  },
  {
    "name": "青岛栈桥海水浴场(暂停营业)",
    "category": "outdoor",
    "duration_minutes": 120,
    "rating": 4.0,
    "lat": 36.062106,
    "lon": 120.31574,
    "description": "这是青岛的一个自然景点青岛栈桥海水浴场(暂停营业)，是一个著名景点 | 联系电话：0532-82868575 | 位于：太平路14号(近栈桥)(青岛站地铁站G口步行210米) | 景点类型：体育休闲服务 | 建议游览时间：2小时",
    "city": "青岛"
  },
  {
    "name": "浮山湾",
    "category": "outdoor",
    "duration_minutes": 120,
    "rating": 4.0,
    "lat": 36.057803,
    "lon": 120.380732,
    "description": "这是青岛的一个自然景点浮山湾，是一个著名景点 | 位于：澳门路与惠东路交叉口南140米 | 景点类型：风景名胜 | 建议游览时间：2小时",
    "city": "青岛"
  },
  {
    "name": "燕岛秋潮",
    "category": "sightseeing",
    "duration_minutes": 120,
    "rating": 4.0,
    "lat": 36.052325,
    "lon": 120.396613,
    "description": "这是青岛的热门景点燕岛秋潮，是一个著名景点 | 位于：燕儿岛路1号青岛奥林匹克帆船中心内 | 景点类型：风景名胜 | 建议游览时间：2小时",
    "city": "青岛"
  },
  {
    "name": "青岛市博物馆",
    "category": "museum",
    "duration_minutes": 120,
    "rating": 4.0,
    "lat": 36.101532,
    "lon": 120.473116,
    "description": "这是一座青岛的青岛市博物馆，是一个著名景点 | 联系电话：0532-88896286 | 位于：梅岭东路51号(会展中心地铁站E口步行300米) | 景点类型：科教文化服务 | 建议游览时间：2小时",
    "city": "青岛"
  },
  {
    "name": "天后宫",
    "category": "history",
    "duration_minutes": 120,
    "rating": 4.0,
    "lat": 36.0617,
    "lon": 120.327255,
    "description": "这是一个历史悠久的景点天后宫，是一个著名景点 | 联系电话：0532-82880728 | 位于：太平路19号(人民会堂地铁站A口步行290米) | 景点类型：风景名胜 | 建议游览时间：2小时",
    "city": "青岛"
  },
  {
    "name": "青岛邮电博物馆",
    "category": "museum",
    "duration_minutes": 120,
    "rating": 4.0,
    "lat": 36.063461,
    "lon": 120.321815,
    "description": "这是一座青岛的青岛邮电博物馆，是一个著名景点 | 联系电话：0532-82872386 | 位于：安徽路5号 | 景点类型：科教文化服务 | 建议游览时间：2小时",
    "city": "青岛"
  },
  {
    "name": "金沙滩",
    "category": "sightseeing",
    "duration_minutes": 120,
    "rating": 4.0,
    "lat": 35.95721,
    "lon": 120.24513,
    "description": "这是青岛的热门景点金沙滩，是一个著名景点 | 联系电话：0532-86707399 | 位于：金沙滩路 | 景点类型：风景名胜 | 建议游览时间：2小时",
    "city": "青岛"
  },
  {
    "name": "爱心树",
    "category": "sightseeing",
    "duration_minutes": 120,
    "rating": 4.0,
    "lat": 36.057328,
    "lon": 120.341838,
    "description": "这是青岛的热门景点爱心树，是一个著名景点 | 位于：南海路14号第一海水浴场内 | 景点类型：风景名胜 | 建议游览时间：2小时",
    "city": "青岛"
  },
  {
    "name": "安娜别墅",
    "category": "sightseeing",
    "duration_minutes": 120,
    "rating": 4.0,
    "lat": 36.06681,
    "lon": 120.320117,
    "description": "这是青岛的热门景点安娜别墅，是一个著名景点 | 联系电话：13465423149 | 位于：浙江路与曲阜路交叉口西南40米 | 景点类型：购物服务 | 建议游览时间：2小时",
    "city": "青岛"
  },
  {
    "name": "薛家岛旅游度假区",
    "category": "sightseeing",
    "duration_minutes": 120,
    "rating": 4.0,
    "lat": 35.956321,
    "lon": 120.239211,
    "description": "这是青岛的热门景点薛家岛旅游度假区，是一个著名景点 | 位于：长江中路1号 | 景点类型：风景名胜 | 建议游览时间：2小时",
    "city": "青岛"
  },
  {
    "name": "八大关风景区-居庸关路14号",
    "category": "sightseeing",
    "duration_minutes": 120,
    "rating": 4.0,
    "lat": 36.052616,
    "lon": 120.350431,
    "description": "这是青岛的热门景点八大关风景区-居庸关路14号，是一个著名景点 | 联系电话：0532-83869357 | 位于：居庸关路14号 | 景点类型：风景名胜 | 建议游览时间：2小时",
    "city": "青岛"
  },
  {
    "name": "中共青岛党史纪念馆",
    "category": "history",
    "duration_minutes": 120,
    "rating": 4.0,
    "lat": 36.107477,
    "lon": 120.344061,
    "description": "这是一个历史悠久的景点中共青岛党史纪念馆，是一个著名景点 | 联系电话：0532-83718027 | 位于：海岸路18号 | 景点类型：风景名胜 | 建议游览时间：2小时",
    "city": "青岛"
  },
  {
    "name": "浮山森林公园-荒草庵",
    "category": "history",
    "duration_minutes": 120,
    "rating": 4.0,
    "lat": 36.08007,
    "lon": 120.429094,
    "description": "这是一个历史悠久的景点浮山森林公园-荒草庵，是一个著名景点 | 位于：银川西路浮山森林公园(西南角) | 景点类型：风景名胜 | 建议游览时间：2小时",
    "city": "青岛"
  },
  {
    "name": "青岛葡萄酒博物馆(暂停开放)",
    "category": "museum",
    "duration_minutes": 120,
    "rating": 4.0,
    "lat": 36.072515,
    "lon": 120.347857,
    "description": "这是一座青岛的青岛葡萄酒博物馆(暂停开放)，是一个著名景点 | 联系电话：0532-82718388;0532-82718399 | 位于：延安一路68号 | 景点类型：科教文化服务 | 建议游览时间：2小时",
    "city": "青岛"
  },
  {
    "name": "贮水山儿童公园",
    "category": "outdoor",
    "duration_minutes": 120,
    "rating": 4.0,
    "lat": 36.079885,
    "lon": 120.33655,
    "description": "这是青岛的一个自然景点贮水山儿童公园，是一个著名景点 | 位于：辽宁路280号(近黄台路) | 景点类型：风景名胜 | 建议游览时间：2小时",
    "city": "青岛"
  },
  {
    "name": "八大关风景区-山海关路11号",
    "category": "outdoor",
    "duration_minutes": 120,
    "rating": 4.0,
    "lat": 36.051327,
    "lon": 120.35019,
    "description": "这是青岛的一个自然景点八大关风景区-山海关路11号，是一个著名景点 | 联系电话：0532-83869357 | 位于：八大关街道山海关路11号 | 景点类型：风景名胜 | 建议游览时间：2小时",
    "city": "青岛"
  },
  {
    "name": "平行世界公园",
    "category": "outdoor",
    "duration_minutes": 120,
    "rating": 4.0,
    "lat": 36.147496,
    "lon": 120.460841,
    "description": "这是青岛的一个自然景点平行世界公园，是一个著名景点 | 位于：科苑经七路与枣山东路交叉口南200米 | 景点类型：风景名胜 | 建议游览时间：2小时",
    "city": "青岛"
  },
  {
    "name": "假日海滩",
    "category": "outdoor",
    "duration_minutes": 120,
    "rating": 4.0,
    "lat": 36.055542,
    "lon": 120.40785,
    "description": "这是青岛的一个自然景点假日海滩，是一个著名景点 | 位于：观潮路与东海中路交叉口东南220米 | 景点类型：风景名胜 | 建议游览时间：2小时",
    "city": "青岛"
  },
  {
    "name": "老舍公园",
    "category": "outdoor",
    "duration_minutes": 120,
    "rating": 4.0,
    "lat": 36.065725,
    "lon": 120.32181,
    "description": "这是青岛的一个自然景点老舍公园，是一个著名景点 | 位于：安徽路19号 | 景点类型：风景名胜 | 建议游览时间：2小时",
    "city": "青岛"
  },
  {
    "name": "辛家庄北山体育文化公园",
    "category": "outdoor",
    "duration_minutes": 120,
    "rating": 4.0,
    "lat": 36.072691,
    "lon": 120.411547,
    "description": "这是青岛的一个自然景点辛家庄北山体育文化公园，是一个著名景点 | 位于：莆田路与龙岩路交叉口西北100米 | 景点类型：风景名胜 | 建议游览时间：2小时",
    "city": "青岛"
  },
  {
    "name": "居庸关路木栈道",
    "category": "sightseeing",
    "duration_minutes": 120,
    "rating": 4.0,
    "lat": 36.05223,
    "lon": 120.352421,
    "description": "这是青岛的热门景点居庸关路木栈道，是一个著名景点 | 联系电话：0532-83869357 | 位于：居庸关路与宁武关路交叉口东80米 | 景点类型：风景名胜 | 建议游览时间：2小时",
    "city": "青岛"
  },
  {
    "name": "青岛世界园艺博览园",
    "category": "sightseeing",
    "duration_minutes": 120,
    "rating": 4.0,
    "lat": 36.197891,
    "lon": 120.496828,
    "description": "这是青岛的热门景点青岛世界园艺博览园，是一个著名景点 | 联系电话：4001890532 | 位于：世园大道 | 景点类型：风景名胜 | 建议游览时间：2小时",
    "city": "青岛"
  },
  {
    "name": "极地之光·青岛海上摩天轮",
    "category": "outdoor",
    "duration_minutes": 120,
    "rating": 4.0,
    "lat": 36.067722,
    "lon": 120.443268,
    "description": "这是青岛的一个自然景点极地之光·青岛海上摩天轮，是一个著名景点 | 联系电话：0532-80999777;0532-85909999 | 位于：东海东路60号海合安·青岛极地海洋公园内(南侧) | 景点类型：体育休闲服务 | 建议游览时间：2小时",
    "city": "青岛"
  },
  {
    "name": "砂砾海滩",
    "category": "outdoor",
    "duration_minutes": 120,
    "rating": 4.0,
    "lat": 36.059585,
    "lon": 120.412087,
    "description": "这是青岛的一个自然景点砂砾海滩，是一个著名景点 | 位于：东海中路与台湾路交叉口东40米 | 景点类型：体育休闲服务 | 建议游览时间：2小时",
    "city": "青岛"
  },
  {
    "name": "石老人观光园",
    "category": "sightseeing",
    "duration_minutes": 120,
    "rating": 4.0,
    "lat": 36.098387,
    "lon": 120.507487,
    "description": "这是青岛的热门景点石老人观光园，是一个著名景点 | 联系电话：0532-88832599;0532-88890758 | 位于：崂山路1号 | 景点类型：风景名胜 | 建议游览时间：2小时",
    "city": "青岛"
  },
  {
    "name": "沙子口休闲广场",
    "category": "sightseeing",
    "duration_minutes": 120,
    "rating": 4.0,
    "lat": 36.113192,
    "lon": 120.543701,
    "description": "这是青岛的热门景点沙子口休闲广场，是一个著名景点 | 位于：沙子口街道崂山路109号 | 景点类型：风景名胜 | 建议游览时间：2小时",
    "city": "青岛"
  },
  {
    "name": "浮山森林公园宁乐广场",
    "category": "outdoor",
    "duration_minutes": 120,
    "rating": 4.0,
    "lat": 36.081887,
    "lon": 120.414307,
    "description": "这是青岛的一个自然景点浮山森林公园宁乐广场，是一个著名景点 | 位于：宁德路6号 | 景点类型：风景名胜 | 建议游览时间：2小时",
    "city": "青岛"
  },
  {
    "name": "竹子庵公园",
    "category": "outdoor",
    "duration_minutes": 120,
    "rating": 4.0,
    "lat": 36.20479,
    "lon": 120.482034,
    "description": "这是青岛的一个自然景点竹子庵公园，是一个著名景点 | 位于：崂山路青岛崂山国家级风景名胜区夏庄街道 | 景点类型：风景名胜 | 建议游览时间：2小时",
    "city": "青岛"
  },
  {
    "name": "李慰农公园",
    "category": "outdoor",
    "duration_minutes": 120,
    "rating": 4.0,
    "lat": 36.060379,
    "lon": 120.313058,
    "description": "这是青岛的一个自然景点李慰农公园，是一个著名景点 | 位于：太平路32号 | 景点类型：风景名胜 | 建议游览时间：2小时",
    "city": "青岛"
  },
  {
    "name": "张村河生态公园",
    "category": "outdoor",
    "duration_minutes": 120,
    "rating": 4.0,
    "lat": 36.127668,
    "lon": 120.464154,
    "description": "这是青岛的一个自然景点张村河生态公园，是一个著名景点 | 位于：合肥路与科苑经五路交叉口路北 | 景点类型：风景名胜 | 建议游览时间：2小时",
    "city": "青岛"
  },
  {
    "name": "石老人国家旅游度假区",
    "category": "sightseeing",
    "duration_minutes": 120,
    "rating": 4.0,
    "lat": 36.091026,
    "lon": 120.468891,
    "description": "这是青岛的热门景点石老人国家旅游度假区，是一个著名景点 | 联系电话：0532-88890758 | 位于：崂山路1号 | 景点类型：体育休闲服务 | 建议游览时间：2小时",
    "city": "青岛"
  },
  {
    "name": "德国领事馆旧址",
    "category": "sightseeing",
    "duration_minutes": 120,
    "rating": 4.0,
    "lat": 36.063052,
    "lon": 120.324965,
    "description": "这是青岛的热门景点德国领事馆旧址，是一个著名景点 | 位于：青岛路1号(人民会堂地铁站A1口步行490米) | 景点类型：风景名胜 | 建议游览时间：2小时",
    "city": "青岛"
  },
  {
    "name": "胶澳总督府旧址",
    "category": "sightseeing",
    "duration_minutes": 120,
    "rating": 4.0,
    "lat": 36.064927,
    "lon": 120.324548,
    "description": "这是青岛的热门景点胶澳总督府旧址，是一个著名景点 | 位于：沂水路11号(近青岛市政协) | 景点类型：风景名胜 | 建议游览时间：2小时",
    "city": "青岛"
  },
  {
    "name": "青岛方特梦幻王国",
    "category": "sightseeing",
    "duration_minutes": 120,
    "rating": 4.0,
    "lat": 36.208054,
    "lon": 120.283343,
    "description": "这是青岛的热门景点青岛方特梦幻王国，是一个著名景点 | 联系电话：4001660006;0532-58759642 | 位于：红岛街道岙东南路华强文化产业基地内 | 景点类型：体育休闲服务 | 建议游览时间：2小时",
    "city": "青岛"
  },
  {
    "name": "八角广场",
    "category": "outdoor",
    "duration_minutes": 120,
    "rating": 4.0,
    "lat": 36.059189,
    "lon": 120.39294,
    "description": "这是青岛的一个自然景点八角广场，是一个著名景点 | 位于：香港中路街道澳门路121号青岛奥林匹克帆船中心内 | 景点类型：风景名胜 | 建议游览时间：2小时",
    "city": "青岛"
  },
  {
    "name": "中国青岛奥帆中心奥运火炬",
    "category": "sightseeing",
    "duration_minutes": 120,
    "rating": 4.0,
    "lat": 36.057405,
    "lon": 120.391002,
    "description": "这是青岛的热门景点中国青岛奥帆中心奥运火炬，是一个著名景点 | 联系电话：0532-66562015;0532-82828998 | 位于：澳门路121号青岛奥林匹克帆船中心内 | 景点类型：风景名胜 | 建议游览时间：2小时",
    "city": "青岛"
  },
  {
    "name": "海涛园-天地间",
    "category": "outdoor",
    "duration_minutes": 120,
    "rating": 4.0,
    "lat": 36.054413,
    "lon": 120.367543,
    "description": "这是青岛的一个自然景点海涛园-天地间，是一个著名景点 | 位于：湛山三路青岛海滨风景区(东南角) | 景点类型：风景名胜 | 建议游览时间：2小时",
    "city": "青岛"
  },
  {
    "name": "海之风广场",
    "category": "outdoor",
    "duration_minutes": 120,
    "rating": 4.0,
    "lat": 36.073812,
    "lon": 120.44834,
    "description": "这是青岛的一个自然景点海之风广场，是一个著名景点 | 位于：东海东路千水千月广场 | 景点类型：风景名胜 | 建议游览时间：2小时",
    "city": "青岛"
  },
  {
    "name": "海泊河广场",
    "category": "outdoor",
    "duration_minutes": 120,
    "rating": 4.0,
    "lat": 36.089314,
    "lon": 120.370802,
    "description": "这是青岛的一个自然景点海泊河广场，是一个著名景点 | 位于：敦化路63号-甲号 | 景点类型：风景名胜 | 建议游览时间：2小时",
    "city": "青岛"
  },
  {
    "name": "石湾大士寺",
    "category": "history",
    "duration_minutes": 120,
    "rating": 4.0,
    "lat": 36.113325,
    "lon": 120.506417,
    "description": "这是一个历史悠久的景点石湾大士寺，是一个著名景点 | 联系电话：13708963278 | 位于：沙子口街道石湾村 | 景点类型：风景名胜 | 建议游览时间：2小时",
    "city": "青岛"
  },
  {
    "name": "嘉定山公园",
    "category": "outdoor",
    "duration_minutes": 120,
    "rating": 4.0,
    "lat": 36.111959,
    "lon": 120.373999,
    "description": "这是青岛的一个自然景点嘉定山公园，是一个著名景点 | 位于：上饶路北首 | 景点类型：风景名胜 | 建议游览时间：2小时",
    "city": "青岛"
  },
  {
    "name": "回澜阁",
    "category": "sightseeing",
    "duration_minutes": 120,
    "rating": 4.0,
    "lat": 36.058475,
    "lon": 120.320444,
    "description": "这是青岛的热门景点回澜阁，是一个著名景点 | 联系电话：0532-82884548 | 位于：太平路14号 | 景点类型：风景名胜 | 建议游览时间：2小时",
    "city": "青岛"
  },
  {
    "name": "浮山阳光大草坪·春蜂来",
    "category": "outdoor",
    "duration_minutes": 120,
    "rating": 4.0,
    "lat": 36.09369,
    "lon": 120.423094,
    "description": "这是青岛的一个自然景点浮山阳光大草坪·春蜂来，是一个著名景点 | 位于：银川西路97号 | 景点类型：风景名胜 | 建议游览时间：2小时",
    "city": "青岛"
  },
  {
    "name": "象耳山公园",
    "category": "outdoor",
    "duration_minutes": 120,
    "rating": 4.0,
    "lat": 36.144661,
    "lon": 120.444333,
    "description": "这是青岛的一个自然景点象耳山公园，是一个著名景点 | 位于：银液泉路与天茶山路交叉口东320米 | 景点类型：风景名胜 | 建议游览时间：2小时",
    "city": "青岛"
  },
  {
    "name": "青岛美高梅酒店南广场",
    "category": "outdoor",
    "duration_minutes": 120,
    "rating": 4.0,
    "lat": 36.097284,
    "lon": 120.466131,
    "description": "这是青岛的一个自然景点青岛美高梅酒店南广场，是一个著名景点 | 位于：香港东路195号南广场(苗岭路地铁站F口步行270米) | 景点类型：风景名胜 | 建议游览时间：2小时",
    "city": "青岛"
  },
  {
    "name": "石老人",
    "category": "sightseeing",
    "duration_minutes": 120,
    "rating": 4.0,
    "lat": 36.088549,
    "lon": 120.495761,
    "description": "这是青岛的热门景点石老人，是一个著名景点 | 位于：崂山路1号 | 景点类型：风景名胜 | 建议游览时间：2小时",
    "city": "青岛"
  },
  {
    "name": "太和山风景区",
    "category": "outdoor",
    "duration_minutes": 120,
    "rating": 4.0,
    "lat": 36.215651,
    "lon": 120.468588,
    "description": "这是青岛的一个自然景点太和山风景区，是一个著名景点 | 位于：夏庄街道太和社区 | 景点类型：风景名胜 | 建议游览时间：2小时",
    "city": "青岛"
  },
  {
    "name": "香港花园广场",
    "category": "outdoor",
    "duration_minutes": 120,
    "rating": 4.0,
    "lat": 36.066668,
    "lon": 120.406711,
    "description": "这是青岛的一个自然景点香港花园广场，是一个著名景点 | 位于：江西路160号(高雄路地铁站A口步行370米) | 景点类型：风景名胜 | 建议游览时间：2小时",
    "city": "青岛"
  },
  {
    "name": "赵太侔故居",
    "category": "history",
    "duration_minutes": 120,
    "rating": 4.0,
    "lat": 36.06296,
    "lon": 120.331191,
    "description": "这是一个历史悠久的景点赵太侔故居，是一个著名景点 | 位于：江苏路街道龙江路7号(人民会堂地铁站B口步行380米) | 景点类型：风景名胜 | 建议游览时间：2小时",
    "city": "青岛"
  },
  {
    "name": "团岛山公园",
    "category": "outdoor",
    "duration_minutes": 120,
    "rating": 4.0,
    "lat": 36.057857,
    "lon": 120.29364,
    "description": "这是青岛的一个自然景点团岛山公园，是一个著名景点 | 位于：团岛山路1号(团岛地铁站A口步行450米) | 景点类型：风景名胜 | 建议游览时间：2小时",
    "city": "青岛"
  },
  {
    "name": "糖球广场",
    "category": "outdoor",
    "duration_minutes": 120,
    "rating": 4.0,
    "lat": 36.111438,
    "lon": 120.353831,
    "description": "这是青岛的一个自然景点糖球广场，是一个著名景点 | 位于：遵化路23号 | 景点类型：风景名胜 | 建议游览时间：2小时",
    "city": "青岛"
  },
  {
    "name": "法海寺",
    "category": "history",
    "duration_minutes": 120,
    "rating": 4.0,
    "lat": 36.234489,
    "lon": 120.447244,
    "description": "这是一个历史悠久的景点法海寺，是一个著名景点 | 联系电话：0532-87797639 | 位于：夏庄街道源头社区26号 | 景点类型：风景名胜 | 建议游览时间：2小时",
    "city": "青岛"
  },
  {
    "name": "栈桥音乐家广场",
    "category": "outdoor",
    "duration_minutes": 120,
    "rating": 4.0,
    "lat": 36.062492,
    "lon": 120.320827,
    "description": "这是青岛的一个自然景点栈桥音乐家广场，是一个著名景点 | 联系电话：13176527510 | 位于：太平路35号 | 景点类型：风景名胜 | 建议游览时间：2小时",
    "city": "青岛"
  },
  {
    "name": "金石博物馆",
    "category": "museum",
    "duration_minutes": 120,
    "rating": 4.0,
    "lat": 36.100097,
    "lon": 120.470292,
    "description": "这是一座青岛的金石博物馆，是一个著名景点 | 联系电话：0532-88977999 | 位于：秦岭路8号 | 景点类型：科教文化服务 | 建议游览时间：2小时",
    "city": "青岛"
  },
  {
    "name": "李沧文化公园",
    "category": "outdoor",
    "duration_minutes": 120,
    "rating": 4.0,
    "lat": 36.168254,
    "lon": 120.42258,
    "description": "这是青岛的一个自然景点李沧文化公园，是一个著名景点 | 位于：夏庄路126号 | 景点类型：风景名胜 | 建议游览时间：2小时",
    "city": "青岛"
  },
  {
    "name": "四方区海云庵广场",
    "category": "outdoor",
    "duration_minutes": 120,
    "rating": 4.0,
    "lat": 36.110948,
    "lon": 120.350246,
    "description": "这是青岛的一个自然景点四方区海云庵广场，是一个著名景点 | 位于：兴隆路与嘉禾路交叉口东50米 | 景点类型：风景名胜 | 建议游览时间：2小时",
    "city": "青岛"
  },
  {
    "name": "崂山风景区",
    "category": "outdoor",
    "duration_minutes": 120,
    "rating": 4.0,
    "lat": 36.184922,
    "lon": 120.618274,
    "description": "这是青岛的一个自然景点崂山风景区，是一个著名景点 | 联系电话：0532-96616 | 位于：崂山景区旅游专用路 | 景点类型：风景名胜 | 建议游览时间：2小时",
    "city": "青岛"
  },
  {
    "name": "西班牙风情馆",
    "category": "sightseeing",
    "duration_minutes": 120,
    "rating": 4.0,
    "lat": 36.051924,
    "lon": 120.349537,
    "description": "这是青岛的热门景点西班牙风情馆，是一个著名景点 | 位于：居庸关路11号 | 景点类型：科教文化服务 | 建议游览时间：2小时",
    "city": "青岛"
  },
  {
    "name": "红星燎原",
    "category": "sightseeing",
    "duration_minutes": 120,
    "rating": 4.0,
    "lat": 36.043885,
    "lon": 120.364764,
    "description": "这是青岛的热门景点红星燎原，是一个著名景点 | 位于：青岛济军黑陶艺术馆东南侧140米 | 景点类型：风景名胜 | 建议游览时间：2小时",
    "city": "青岛"
  },
  {
    "name": "梦幻水母宫",
    "category": "outdoor",
    "duration_minutes": 120,
    "rating": 4.0,
    "lat": 36.055924,
    "lon": 120.33458,
    "description": "这是青岛的一个自然景点梦幻水母宫，是一个著名景点 | 位于：莱阳路2号青岛海底世界内(东北角) | 景点类型：风景名胜 | 建议游览时间：2小时",
    "city": "青岛"
  },
  {
    "name": "青岛市市南区湛山广场",
    "category": "outdoor",
    "duration_minutes": 120,
    "rating": 4.0,
    "lat": 36.060281,
    "lon": 120.369972,
    "description": "这是青岛的一个自然景点青岛市市南区湛山广场，是一个著名景点 | 位于：湛山广场(延安三路地铁站A口步行440米) | 景点类型：风景名胜 | 建议游览时间：2小时",
    "city": "青岛"
  },
  {
    "name": "青岛市市南区湛山广场",
    "category": "outdoor",
    "duration_minutes": 120,
    "rating": 4.0,
    "lat": 36.060281,
    "lon": 120.369972,
    "description": "这是青岛的一个自然景点青岛市市南区湛山广场，是一个著名景点 | 位于：湛山广场(延安三路地铁站A口步行440米) | 景点类型：风景名胜 | 建议游览时间：2小时",
    "city": "青岛"
  },
  {
    "name": "青岛西海岸金沙滩啤酒城",
    "category": "outdoor",
    "duration_minutes": 120,
    "rating": 4.0,
    "lat": 35.952345,
    "lon": 120.239158,
    "description": "这是青岛的一个自然景点青岛西海岸金沙滩啤酒城，是一个著名景点 | 联系电话：0532-86870002 | 位于：薛家岛街道西海岸新区金沙滩啤酒城17号大棚 | 景点类型：风景名胜 | 建议游览时间：2小时",
    "city": "青岛"
  },
  {
    "name": "青岛水族馆",
    "category": "outdoor",
    "duration_minutes": 120,
    "rating": 4.0,
    "lat": 36.056511,
    "lon": 120.335231,
    "description": "这是青岛的一个自然景点青岛水族馆，是一个著名景点 | 联系电话：0532-82866614;0532-82892187 | 位于：八大关街道莱阳路4号(近海军博物馆) | 景点类型：风景名胜 | 建议游览时间：2小时",
    "city": "青岛"
  },
  {
    "name": "齐鲁康体公园",
    "category": "outdoor",
    "duration_minutes": 120,
    "rating": 4.0,
    "lat": 36.114714,
    "lon": 120.419974,
    "description": "这是青岛的一个自然景点齐鲁康体公园，是一个著名景点 | 位于：齐鲁医院以北 | 景点类型：风景名胜 | 建议游览时间：2小时",
    "city": "青岛"
  },
  {
    "name": "南山公园",
    "category": "outdoor",
    "duration_minutes": 120,
    "rating": 4.0,
    "lat": 36.103368,
    "lon": 120.365356,
    "description": "这是青岛的一个自然景点南山公园，是一个著名景点 | 位于：阜新路街道鞍山二路42号 | 景点类型：风景名胜 | 建议游览时间：2小时",
    "city": "青岛"
  },
  {
    "name": "枫林涧",
    "category": "sightseeing",
    "duration_minutes": 120,
    "rating": 4.0,
    "lat": 36.062438,
    "lon": 120.350168,
    "description": "这是青岛的热门景点枫林涧，是一个著名景点 | 位于：文登路28号青岛中山公园内(南侧) | 景点类型：风景名胜 | 建议游览时间：2小时",
    "city": "青岛"
  },
  {
    "name": "中国海洋大学鱼山校区海洋生物博物馆",
    "category": "museum",
    "duration_minutes": 120,
    "rating": 4.0,
    "lat": 36.062802,
    "lon": 120.335631,
    "description": "这是一座青岛的中国海洋大学鱼山校区海洋生物博物馆，是一个著名景点 | 位于：鱼山路5号中国海洋大学鱼山校区 | 景点类型：科教文化服务 | 建议游览时间：2小时",
    "city": "青岛"
  },
  {
    "name": "中山公园-桂花园",
    "category": "outdoor",
    "duration_minutes": 120,
    "rating": 4.0,
    "lat": 36.063769,
    "lon": 120.349908,
    "description": "这是青岛的一个自然景点中山公园-桂花园，是一个著名景点 | 位于：文登路28号青岛中山公园内 | 景点类型：风景名胜 | 建议游览时间：2小时",
    "city": "青岛"
  },
  {
    "name": "浮山公园游乐场",
    "category": "outdoor",
    "duration_minutes": 120,
    "rating": 4.0,
    "lat": 36.093606,
    "lon": 120.427165,
    "description": "这是青岛的一个自然景点浮山公园游乐场，是一个著名景点 | 位于：银川西路99号 | 景点类型：体育休闲服务 | 建议游览时间：2小时",
    "city": "青岛"
  },
  {
    "name": "东莞路文化广场",
    "category": "outdoor",
    "duration_minutes": 120,
    "rating": 4.0,
    "lat": 36.103853,
    "lon": 120.385737,
    "description": "这是青岛的一个自然景点东莞路文化广场，是一个著名景点 | 位于：东莞路12号(清江路地铁站A口步行450米) | 景点类型：风景名胜 | 建议游览时间：2小时",
    "city": "青岛"
  },
  {
    "name": "鲁迅公园-凉亭",
    "category": "outdoor",
    "duration_minutes": 120,
    "rating": 4.0,
    "lat": 36.057875,
    "lon": 120.337777,
    "description": "这是青岛的一个自然景点鲁迅公园-凉亭，是一个著名景点 | 联系电话：0532-82860760 | 位于：琴屿路26号鲁迅公园内 | 景点类型：风景名胜 | 建议游览时间：2小时",
    "city": "青岛"
  },
  {
    "name": "青岛第二海水浴场-瞭望台",
    "category": "outdoor",
    "duration_minutes": 120,
    "rating": 4.0,
    "lat": 36.050043,
    "lon": 120.351795,
    "description": "这是青岛的一个自然景点青岛第二海水浴场-瞭望台，是一个著名景点 | 联系电话：0532-66577309 | 位于：山海关路6号青岛第二海水浴场 | 景点类型：风景名胜 | 建议游览时间：2小时",
    "city": "青岛"
  },
  {
    "name": "广兴里",
    "category": "sightseeing",
    "duration_minutes": 120,
    "rating": 4.0,
    "lat": 36.071206,
    "lon": 120.320799,
    "description": "这是青岛的热门景点广兴里，是一个著名景点 | 位于：海泊路63号(中山路地铁站D口对面) | 景点类型：风景名胜 | 建议游览时间：2小时",
    "city": "青岛"
  },
  {
    "name": "观海山公园",
    "category": "outdoor",
    "duration_minutes": 120,
    "rating": 4.0,
    "lat": 36.066996,
    "lon": 120.325166,
    "description": "这是青岛的一个自然景点观海山公园，是一个著名景点 | 位于：观海二路东头(信号山青大附院地铁站A口步行490米) | 景点类型：风景名胜 | 建议游览时间：2小时",
    "city": "青岛"
  },
  {
    "name": "青岛沧口公园",
    "category": "outdoor",
    "duration_minutes": 120,
    "rating": 4.0,
    "lat": 36.185076,
    "lon": 120.388766,
    "description": "这是青岛的一个自然景点青岛沧口公园，是一个著名景点 | 位于：兴华路33号 | 景点类型：风景名胜 | 建议游览时间：2小时",
    "city": "青岛"
  },
  {
    "name": "青岛啤酒博物馆A馆",
    "category": "museum",
    "duration_minutes": 120,
    "rating": 4.0,
    "lat": 36.078878,
    "lon": 120.34622,
    "description": "这是一座青岛的青岛啤酒博物馆A馆，是一个著名景点 | 联系电话：0532-83833437 | 位于：登州路56号青岛啤酒厂内 | 景点类型：科教文化服务 | 建议游览时间：2小时",
    "city": "青岛"
  },
  {
    "name": "八大关风景区-韶关路54号甲",
    "category": "sightseeing",
    "duration_minutes": 120,
    "rating": 4.0,
    "lat": 36.057871,
    "lon": 120.35157,
    "description": "这是青岛的热门景点八大关风景区-韶关路54号甲，是一个著名景点 | 联系电话：0532-83869357 | 位于：韶关路与香港西路交叉口西南40米 | 景点类型：风景名胜 | 建议游览时间：2小时",
    "city": "青岛"
  },
  {
    "name": "十梅庵公园",
    "category": "outdoor",
    "duration_minutes": 120,
    "rating": 4.0,
    "lat": 36.199364,
    "lon": 120.419416,
    "description": "这是青岛的一个自然景点十梅庵公园，是一个著名景点 | 位于：十梅庵村东南侧 | 景点类型：风景名胜 | 建议游览时间：2小时",
    "city": "青岛"
  },
  {
    "name": "青岛贝林自然博物馆",
    "category": "museum",
    "duration_minutes": 120,
    "rating": 4.0,
    "lat": 36.079478,
    "lon": 120.333705,
    "description": "这是一座青岛的青岛贝林自然博物馆，是一个著名景点 | 联系电话：0532-58558667 | 位于：辽宁路280号少年宫对面 | 景点类型：科教文化服务 | 建议游览时间：2小时",
    "city": "青岛"
  },
  {
    "name": "华·秀1902中心(纺织谷)",
    "category": "sightseeing",
    "duration_minutes": 120,
    "rating": 4.0,
    "lat": 36.145627,
    "lon": 120.377233,
    "description": "这是青岛的热门景点华·秀1902中心(纺织谷)，是一个著名景点 | 位于：四流南路80号(中心医院地铁站B2口步行280米) | 景点类型：商务住宅 | 建议游览时间：2小时",
    "city": "青岛"
  },
  {
    "name": "伏龙山公园",
    "category": "outdoor",
    "duration_minutes": 120,
    "rating": 4.0,
    "lat": 36.069932,
    "lon": 120.333009,
    "description": "这是青岛的一个自然景点伏龙山公园，是一个著名景点 | 位于：伏龙路5号 | 景点类型：风景名胜 | 建议游览时间：2小时",
    "city": "青岛"
  },
  {
    "name": "青岛鲁作博物馆",
    "category": "museum",
    "duration_minutes": 120,
    "rating": 4.0,
    "lat": 36.058243,
    "lon": 120.329898,
    "description": "这是一座青岛的青岛鲁作博物馆，是一个著名景点 | 联系电话：0532-80978000 | 位于：莱阳路28号(人民会堂地铁站D口步行160米) | 景点类型：科教文化服务 | 建议游览时间：2小时",
    "city": "青岛"
  },
  {
    "name": "元帅楼",
    "category": "sightseeing",
    "duration_minutes": 120,
    "rating": 4.0,
    "lat": 36.050894,
    "lon": 120.348155,
    "description": "这是青岛的热门景点元帅楼，是一个著名景点 | 联系电话：0532-83869357 | 位于：八大关街道武胜关支路10号八大关风景区(西南角) | 景点类型：风景名胜 | 建议游览时间：2小时",
    "city": "青岛"
  },
  {
    "name": "信号山公园-旋转观景楼",
    "category": "outdoor",
    "duration_minutes": 120,
    "rating": 4.0,
    "lat": 36.066936,
    "lon": 120.331304,
    "description": "这是青岛的一个自然景点信号山公园-旋转观景楼，是一个著名景点 | 位于：龙山路16号甲 | 景点类型：风景名胜 | 建议游览时间：2小时",
    "city": "青岛"
  },
  {
    "name": "青小园牟平路游园口袋公园",
    "category": "outdoor",
    "duration_minutes": 120,
    "rating": 4.0,
    "lat": 36.062884,
    "lon": 120.344015,
    "description": "这是青岛的一个自然景点青小园牟平路游园口袋公园，是一个著名景点 | 位于：牟平路延安一路路口(汇泉广场地铁站A口步行450米) | 景点类型：风景名胜 | 建议游览时间：2小时",
    "city": "青岛"
  },
  {
    "name": "老虎山公园",
    "category": "outdoor",
    "duration_minutes": 120,
    "rating": 4.0,
    "lat": 36.182728,
    "lon": 120.414199,
    "description": "这是青岛的一个自然景点老虎山公园，是一个著名景点 | 位于：虎山路街道上犹路与文安东路交叉口东140米 | 景点类型：风景名胜 | 建议游览时间：2小时",
    "city": "青岛"
  },
  {
    "name": "富源广场",
    "category": "outdoor",
    "duration_minutes": 120,
    "rating": 4.0,
    "lat": 36.10798,
    "lon": 120.417532,
    "description": "这是青岛的一个自然景点富源广场，是一个著名景点 | 位于：浮山后二小区富源二路16号甲 | 景点类型：风景名胜 | 建议游览时间：2小时",
    "city": "青岛"
  },
  {
    "name": "浮山香苑",
    "category": "outdoor",
    "duration_minutes": 120,
    "rating": 4.0,
    "lat": 36.091687,
    "lon": 120.408035,
    "description": "这是青岛的一个自然景点浮山香苑，是一个著名景点 | 位于：同安路街道银川西路126号 | 景点类型：风景名胜 | 建议游览时间：2小时",
    "city": "青岛"
  },
  {
    "name": "青岛取引所旧址",
    "category": "sightseeing",
    "duration_minutes": 120,
    "rating": 4.0,
    "lat": 36.079277,
    "lon": 120.320916,
    "description": "这是青岛的热门景点青岛取引所旧址，是一个著名景点 | 联系电话：0532-88888822;15863000022 | 位于：即墨路街道馆陶路22号 | 景点类型：风景名胜 | 建议游览时间：2小时",
    "city": "青岛"
  },
  {
    "name": "唐岛湾景区",
    "category": "sightseeing",
    "duration_minutes": 120,
    "rating": 4.0,
    "lat": 35.922932,
    "lon": 120.195555,
    "description": "这是青岛的热门景点唐岛湾景区，是一个著名景点 | 联系电话：0532-86914001 | 位于：薛家岛街道漓江西路674号 | 景点类型：风景名胜 | 建议游览时间：2小时",
    "city": "青岛"
  },
  {
    "name": "苏联公民协会旧址",
    "category": "sightseeing",
    "duration_minutes": 120,
    "rating": 4.0,
    "lat": 36.05464,
    "lon": 120.349395,
    "description": "这是青岛的热门景点苏联公民协会旧址，是一个著名景点 | 联系电话：0532-83869357 | 位于：韶关路26号 | 景点类型：风景名胜 | 建议游览时间：2小时",
    "city": "青岛"
  },
  {
    "name": "白泥地公园",
    "category": "outdoor",
    "duration_minutes": 120,
    "rating": 4.0,
    "lat": 36.19906,
    "lon": 120.365081,
    "description": "这是青岛的一个自然景点白泥地公园，是一个著名景点 | 位于：环湾路 | 景点类型：风景名胜 | 建议游览时间：2小时",
    "city": "青岛"
  },
  {
    "name": "青岛动物园熊猫馆",
    "category": "outdoor",
    "duration_minutes": 120,
    "rating": 4.0,
    "lat": 36.070176,
    "lon": 120.350794,
    "description": "这是青岛的一个自然景点青岛动物园熊猫馆，是一个著名景点 | 联系电话：0532-82872970 | 位于：青岛动物园-西区 | 景点类型：风景名胜 | 建议游览时间：2小时",
    "city": "青岛"
  },
  {
    "name": "双山公园",
    "category": "outdoor",
    "duration_minutes": 120,
    "rating": 4.0,
    "lat": 36.115415,
    "lon": 120.388397,
    "description": "这是青岛的一个自然景点双山公园，是一个著名景点 | 位于：重庆南路与蚌埠路路口 | 景点类型：风景名胜 | 建议游览时间：2小时",
    "city": "青岛"
  },
  {
    "name": "中山公园-孙中山雕像",
    "category": "outdoor",
    "duration_minutes": 120,
    "rating": 4.0,
    "lat": 36.063162,
    "lon": 120.346741,
    "description": "这是青岛的一个自然景点中山公园-孙中山雕像，是一个著名景点 | 位于：青岛中山公园内(文东路28号) | 景点类型：风景名胜 | 建议游览时间：2小时",
    "city": "青岛"
  },
  {
    "name": "双拥公园",
    "category": "outdoor",
    "duration_minutes": 120,
    "rating": 4.0,
    "lat": 36.125139,
    "lon": 120.589215,
    "description": "这是青岛的一个自然景点双拥公园，是一个著名景点 | 位于：大河东客服中心南停车场东200米 | 景点类型：风景名胜 | 建议游览时间：2小时",
    "city": "青岛"
  },
  {
    "name": "青岛国际俱乐部旧址",
    "category": "sightseeing",
    "duration_minutes": 120,
    "rating": 4.0,
    "lat": 36.062991,
    "lon": 120.319385,
    "description": "这是青岛的热门景点青岛国际俱乐部旧址，是一个著名景点 | 位于：中山路1号(青岛站地铁站G口步行370米) | 景点类型：风景名胜 | 建议游览时间：2小时",
    "city": "青岛"
  },
  {
    "name": "崂山区深圳路体育公园",
    "category": "outdoor",
    "duration_minutes": 120,
    "rating": 4.0,
    "lat": 36.118893,
    "lon": 120.456498,
    "description": "这是青岛的一个自然景点崂山区深圳路体育公园，是一个著名景点 | 位于：银岭路北头 | 景点类型：风景名胜 | 建议游览时间：2小时",
    "city": "青岛"
  },
  {
    "name": "八大关风景区-太平角一路1号",
    "category": "sightseeing",
    "duration_minutes": 120,
    "rating": 4.0,
    "lat": 36.054565,
    "lon": 120.355891,
    "description": "这是青岛的热门景点八大关风景区-太平角一路1号，是一个著名景点 | 联系电话：0532-83869357 | 位于：武胜关支路10号八大关风景区内(东侧) | 景点类型：风景名胜 | 建议游览时间：2小时",
    "city": "青岛"
  },
  {
    "name": "青岛中山路城市记忆馆",
    "category": "outdoor",
    "duration_minutes": 120,
    "rating": 4.0,
    "lat": 36.068084,
    "lon": 120.31794,
    "description": "这是青岛的一个自然景点青岛中山路城市记忆馆，是一个著名景点 | 联系电话：15505323526 | 位于：中山路72号 | 景点类型：风景名胜 | 建议游览时间：2小时",
    "city": "青岛"
  },
  {
    "name": "山海通廊",
    "category": "outdoor",
    "duration_minutes": 120,
    "rating": 4.0,
    "lat": 36.098268,
    "lon": 120.448231,
    "description": "这是青岛的一个自然景点山海通廊，是一个著名景点 | 位于：苗岭路56号 | 景点类型：风景名胜 | 建议游览时间：2小时",
    "city": "青岛"
  },
  {
    "name": "欧式建筑",
    "category": "sightseeing",
    "duration_minutes": 120,
    "rating": 4.0,
    "lat": 36.065642,
    "lon": 120.330502,
    "description": "这是青岛的热门景点欧式建筑，是一个著名景点 | 联系电话：18661851818 | 位于：龙山路18号拾花楼 | 景点类型：商务住宅 | 建议游览时间：2小时",
    "city": "青岛"
  },
  {
    "name": "青岛37号公园",
    "category": "outdoor",
    "duration_minutes": 120,
    "rating": 4.0,
    "lat": 36.066175,
    "lon": 120.393152,
    "description": "这是青岛的一个自然景点青岛37号公园，是一个著名景点 | 联系电话：4001183737 | 位于：香港中路37号(香港中路与云霄路交汇处) | 景点类型：商务住宅 | 建议游览时间：2小时",
    "city": "青岛"
  },
  {
    "name": "TEU集装箱部落",
    "category": "sightseeing",
    "duration_minutes": 120,
    "rating": 4.0,
    "lat": 36.084784,
    "lon": 120.31198,
    "description": "这是青岛的热门景点TEU集装箱部落，是一个著名景点 | 位于：港洲路1号 | 景点类型：购物服务 | 建议游览时间：2小时",
    "city": "青岛"
  },
  {
    "name": "螃蟹上岸雕塑",
    "category": "sightseeing",
    "duration_minutes": 120,
    "rating": 4.0,
    "lat": 36.057942,
    "lon": 120.375843,
    "description": "这是青岛的热门景点螃蟹上岸雕塑，是一个著名景点 | 位于：澳门路海趣园(东南角) | 景点类型：风景名胜 | 建议游览时间：2小时",
    "city": "青岛"
  },
  {
    "name": "人民英雄纪念碑碑心石开采旧址",
    "category": "sightseeing",
    "duration_minutes": 120,
    "rating": 4.0,
    "lat": 36.080665,
    "lon": 120.437274,
    "description": "这是青岛的热门景点人民英雄纪念碑碑心石开采旧址，是一个著名景点 | 位于：凤栖谷路与青大三路交叉口东北360米 | 景点类型：风景名胜 | 建议游览时间：2小时",
    "city": "青岛"
  },
  {
    "name": "左批观日",
    "category": "sightseeing",
    "duration_minutes": 120,
    "rating": 4.0,
    "lat": 36.003042,
    "lon": 120.313064,
    "description": "这是青岛的热门景点左批观日，是一个著名景点 | 位于：S399(九龙山路) | 景点类型：风景名胜 | 建议游览时间：2小时",
    "city": "青岛"
  },
  {
    "name": "流清河沙滩",
    "category": "sightseeing",
    "duration_minutes": 120,
    "rating": 4.0,
    "lat": 36.12522,
    "lon": 120.614519,
    "description": "这是青岛的热门景点流清河沙滩，是一个著名景点 | 位于：崂山景区旅游专用路东100米 | 景点类型：风景名胜 | 建议游览时间：2小时",
    "city": "青岛"
  },
  {
    "name": "夹岭山公园",
    "category": "outdoor",
    "duration_minutes": 120,
    "rating": 4.0,
    "lat": 36.108717,
    "lon": 120.401305,
    "description": "这是青岛的一个自然景点夹岭山公园，是一个著名景点 | 位于：伊春路227号附近 | 景点类型：风景名胜 | 建议游览时间：2小时",
    "city": "青岛"
  },
  {
    "name": "青小园-海泊河管理路口袋公园",
    "category": "outdoor",
    "duration_minutes": 120,
    "rating": 4.0,
    "lat": 36.113061,
    "lon": 120.328649,
    "description": "这是青岛的一个自然景点青小园-海泊河管理路口袋公园，是一个著名景点 | 位于：海泊河入海口 | 景点类型：风景名胜 | 建议游览时间：2小时",
    "city": "青岛"
  },
  {
    "name": "全民健身中心出入口(FN04)",
    "category": "sightseeing",
    "duration_minutes": 120,
    "rating": 4.0,
    "lat": 36.089816,
    "lon": 120.415124,
    "description": "这是青岛的热门景点全民健身中心出入口(FN04)，是一个著名景点 | 景点类型：风景名胜 | 建议游览时间：2小时",
    "city": "青岛"
  },
  {
    "name": "东方伊甸园",
    "category": "outdoor",
    "duration_minutes": 120,
    "rating": 4.0,
    "lat": 36.258117,
    "lon": 120.310616,
    "description": "这是青岛的一个自然景点东方伊甸园，是一个著名景点 | 位于：火炬路40号-1 | 景点类型：风景名胜 | 建议游览时间：2小时",
    "city": "青岛"
  },
  {
    "name": "毛主席石像",
    "category": "sightseeing",
    "duration_minutes": 120,
    "rating": 4.0,
    "lat": 36.079101,
    "lon": 120.439055,
    "description": "这是青岛的热门景点毛主席石像，是一个著名景点 | 位于：海川路与海富路交叉口西320米 | 景点类型：风景名胜 | 建议游览时间：2小时",
    "city": "青岛"
  },
  {
    "name": "天主教青岛教区圣心修道院旧址",
    "category": "sightseeing",
    "duration_minutes": 120,
    "rating": 4.0,
    "lat": 36.068158,
    "lon": 120.319977,
    "description": "这是青岛的热门景点天主教青岛教区圣心修道院旧址，是一个著名景点 | 位于：浙江路28号 | 景点类型：风景名胜 | 建议游览时间：2小时",
    "city": "青岛"
  },
  {
    "name": "青岛崂山国家级风景名胜区-流清游览区",
    "category": "outdoor",
    "duration_minutes": 120,
    "rating": 4.0,
    "lat": 36.135219,
    "lon": 120.622902,
    "description": "这是青岛的一个自然景点青岛崂山国家级风景名胜区-流清游览区，是一个著名景点 | 位于：崂山景区 | 景点类型：风景名胜 | 建议游览时间：2小时",
    "city": "青岛"
  },
  {
    "name": "青岛奥林匹克雕塑文化园",
    "category": "sightseeing",
    "duration_minutes": 120,
    "rating": 4.0,
    "lat": 36.285939,
    "lon": 120.395192,
    "description": "这是青岛的热门景点青岛奥林匹克雕塑文化园，是一个著名景点 | 联系电话：0532-87759871 | 位于：兴阳路318号 | 景点类型：风景名胜 | 建议游览时间：2小时",
    "city": "青岛"
  },
  {
    "name": "崂山风景区九水游览区",
    "category": "outdoor",
    "duration_minutes": 120,
    "rating": 4.0,
    "lat": 36.210433,
    "lon": 120.607996,
    "description": "这是青岛的一个自然景点崂山风景区九水游览区，是一个著名景点 | 联系电话：0532-87053351;96616 | 位于：崂山风景区内(北侧) | 景点类型：风景名胜 | 建议游览时间：2小时",
    "city": "青岛"
  },
  {
    "name": "坛顶山公园",
    "category": "outdoor",
    "duration_minutes": 120,
    "rating": 4.0,
    "lat": 36.1067,
    "lon": 120.377176,
    "description": "这是青岛的一个自然景点坛顶山公园，是一个著名景点 | 位于：拜泉路20号 | 景点类型：风景名胜 | 建议游览时间：2小时",
    "city": "青岛"
  },
  {
    "name": "青岛·海底隧道博物馆",
    "category": "museum",
    "duration_minutes": 120,
    "rating": 4.0,
    "lat": 36.002875,
    "lon": 120.289641,
    "description": "这是一座青岛的青岛·海底隧道博物馆，是一个著名景点 | 联系电话：0532-86990865 | 位于：九龙江路63号 | 景点类型：科教文化服务 | 建议游览时间：2小时",
    "city": "青岛"
  },
  {
    "name": "团岛湾海滩",
    "category": "outdoor",
    "duration_minutes": 120,
    "rating": 4.0,
    "lat": 36.053068,
    "lon": 120.29441,
    "description": "这是青岛的一个自然景点团岛湾海滩，是一个著名景点 | 位于：团岛路34号(团岛地铁站A口步行740米) | 景点类型：风景名胜 | 建议游览时间：2小时",
    "city": "青岛"
  }
]