[
  {
    "name": "成都金融城双子塔",
    "category": "history",
    "duration_minutes": 120,
    "rating": 4.0,
    "lat": 30.582588,
    "lon": 104.064759,
    "description": "这是一个历史悠久的景点成都金融城双子塔，是一个著名景点 | 位于：交子北一路与交子大道交叉口60米 | 景点类型：商务住宅 | 建议游览时间：2小时",
    "city": "成都"
  },
  {
    "name": "锦城公园",
    "category": "outdoor",
    "duration_minutes": 120,
    "rating": 4.0,
    "lat": 30.570449,
    "lon": 104.052308,
    "description": "这是成都的一个自然景点锦城公园，是一个著名景点 | 位于：益州大道北段1666号 | 景点类型：风景名胜 | 建议游览时间：2小时",
    "city": "成都"
  },
  {
    "name": "桂溪生态公园",
    "category": "outdoor",
    "duration_minutes": 120,
    "rating": 4.0,
    "lat": 30.563054,
    "lon": 104.067314,
    "description": "这是成都的一个自然景点桂溪生态公园，是一个著名景点 | 位于：天府一街附近 | 景点类型：风景名胜 | 建议游览时间：2小时",
    "city": "成都"
  },
  {
    "name": "生机之塔",
    "category": "history",
    "duration_minutes": 120,
    "rating": 4.0,
    "lat": 30.566902,
    "lon": 104.070337,
    "description": "这是一个历史悠久的景点生机之塔，是一个著名景点 | 位于：G4202成都绕城高速与濯锦立交桥交叉口北120米 | 景点类型：风景名胜 | 建议游览时间：2小时",
    "city": "成都"
  },
  {
    "name": "交子公园",
    "category": "outdoor",
    "duration_minutes": 120,
    "rating": 4.0,
    "lat": 30.582568,
    "lon": 104.072828,
    "description": "这是成都的一个自然景点交子公园，是一个著名景点 | 位于：天府大道北段 | 景点类型：风景名胜 | 建议游览时间：2小时",
    "city": "成都"
  },
  {
    "name": "铁像寺水街",
    "category": "sightseeing",
    "duration_minutes": 120,
    "rating": 4.0,
    "lat": 30.5575,
    "lon": 104.049709,
    "description": "这是成都的热门景点铁像寺水街，是一个著名景点 | 联系电话：028-65292065 | 位于：铁像寺路88号 | 景点类型：风景名胜 | 建议游览时间：2小时",
    "city": "成都"
  },
  {
    "name": "双子塔夜景打卡点",
    "category": "history",
    "duration_minutes": 120,
    "rating": 4.0,
    "lat": 30.582369,
    "lon": 104.060512,
    "description": "这是一个历史悠久的景点双子塔夜景打卡点，是一个著名景点 | 位于：交子大道与益州大道北段交叉口东40米 | 景点类型：风景名胜 | 建议游览时间：2小时",
    "city": "成都"
  },
  {
    "name": "天府绿道",
    "category": "sightseeing",
    "duration_minutes": 120,
    "rating": 4.0,
    "lat": 30.56275,
    "lon": 104.076812,
    "description": "这是成都的热门景点天府绿道，是一个著名景点 | 位于：益州大道中段694号 | 景点类型：风景名胜 | 建议游览时间：2小时",
    "city": "成都"
  },
  {
    "name": "大源中央公园",
    "category": "outdoor",
    "duration_minutes": 120,
    "rating": 4.0,
    "lat": 30.549059,
    "lon": 104.049182,
    "description": "这是成都的一个自然景点大源中央公园，是一个著名景点 | 联系电话：13281029115 | 位于：成都高新区天府二街777号(大源地铁站D口旁) | 景点类型：风景名胜 | 建议游览时间：2小时",
    "city": "成都"
  },
  {
    "name": "桂溪生态公园西区",
    "category": "outdoor",
    "duration_minutes": 120,
    "rating": 4.0,
    "lat": 30.562903,
    "lon": 104.062735,
    "description": "这是成都的一个自然景点桂溪生态公园西区，是一个著名景点 | 位于：天府一街桂溪生态公园(西侧) | 景点类型：风景名胜 | 建议游览时间：2小时",
    "city": "成都"
  },
  {
    "name": "中和湿地公园",
    "category": "outdoor",
    "duration_minutes": 120,
    "rating": 4.0,
    "lat": 30.565879,
    "lon": 104.095422,
    "description": "这是成都的一个自然景点中和湿地公园，是一个著名景点 | 位于：朝阳横街北50米 | 景点类型：风景名胜 | 建议游览时间：2小时",
    "city": "成都"
  },
  {
    "name": "铁像寺",
    "category": "history",
    "duration_minutes": 120,
    "rating": 4.0,
    "lat": 30.557092,
    "lon": 104.049006,
    "description": "这是一个历史悠久的景点铁像寺，是一个著名景点 | 联系电话：028-85323576;028-86036140 | 位于：铁像寺路66号 | 景点类型：风景名胜 | 建议游览时间：2小时",
    "city": "成都"
  },
  {
    "name": "成都江滩公园",
    "category": "outdoor",
    "duration_minutes": 120,
    "rating": 4.0,
    "lat": 30.555514,
    "lon": 104.080905,
    "description": "这是成都的一个自然景点成都江滩公园，是一个著名景点 | 位于：世纪城路 | 景点类型：风景名胜 | 建议游览时间：2小时",
    "city": "成都"
  },
  {
    "name": "春熙路",
    "category": "sightseeing",
    "duration_minutes": 120,
    "rating": 4.0,
    "lat": 30.655544,
    "lon": 104.077774,
    "description": "这是成都的热门景点春熙路，是一个著名景点 | 位于：春熙路街道 | 景点类型：购物服务 | 建议游览时间：2小时",
    "city": "成都"
  },
  {
    "name": "UPARK公园",
    "category": "outdoor",
    "duration_minutes": 120,
    "rating": 4.0,
    "lat": 30.554564,
    "lon": 104.039721,
    "description": "这是成都的一个自然景点UPARK公园，是一个著名景点 | 联系电话：028-83235307;028-87675877 | 位于：富华北路666号 | 景点类型：购物服务 | 建议游览时间：2小时",
    "city": "成都"
  },
  {
    "name": "桂溪生态公园东区",
    "category": "outdoor",
    "duration_minutes": 120,
    "rating": 4.0,
    "lat": 30.563249,
    "lon": 104.073417,
    "description": "这是成都的一个自然景点桂溪生态公园东区，是一个著名景点 | 位于：世纪城东路9号(四川电视台对面) | 景点类型：风景名胜 | 建议游览时间：2小时",
    "city": "成都"
  },
  {
    "name": "环球中心海洋乐园",
    "category": "outdoor",
    "duration_minutes": 120,
    "rating": 4.0,
    "lat": 30.569822,
    "lon": 104.062862,
    "description": "这是成都的一个自然景点环球中心海洋乐园，是一个著名景点 | 联系电话：028-62732012;028-62732999 | 位于：天府大道北段1700号新世纪环球中心1层 | 景点类型：体育休闲服务 | 建议游览时间：2小时",
    "city": "成都"
  },
  {
    "name": "东湖公园",
    "category": "outdoor",
    "duration_minutes": 120,
    "rating": 4.0,
    "lat": 30.616051,
    "lon": 104.087899,
    "description": "这是成都的一个自然景点东湖公园，是一个著名景点 | 联系电话：028-85568847 | 位于：二环路东五段301号(东湖公园地铁站A口旁) | 景点类型：风景名胜 | 建议游览时间：2小时",
    "city": "成都"
  },
  {
    "name": "交子之环",
    "category": "sightseeing",
    "duration_minutes": 120,
    "rating": 4.0,
    "lat": 30.581982,
    "lon": 104.059498,
    "description": "这是成都的热门景点交子之环，是一个著名景点 | 位于：交子大道177号中海国际中心 | 景点类型：风景名胜 | 建议游览时间：2小时",
    "city": "成都"
  },
  {
    "name": "白鹭湾湿地公园",
    "category": "outdoor",
    "duration_minutes": 120,
    "rating": 4.0,
    "lat": 30.568151,
    "lon": 104.136926,
    "description": "这是成都的一个自然景点白鹭湾湿地公园，是一个著名景点 | 位于：湿地路 | 景点类型：风景名胜 | 建议游览时间：2小时",
    "city": "成都"
  },
  {
    "name": "环球中心东广场",
    "category": "sightseeing",
    "duration_minutes": 120,
    "rating": 4.0,
    "lat": 30.569188,
    "lon": 104.065771,
    "description": "这是成都的热门景点环球中心东广场，是一个著名景点 | 位于：锦悦西路与天府大道北段辅路交叉口西南380米 | 景点类型：风景名胜 | 建议游览时间：2小时",
    "city": "成都"
  },
  {
    "name": "三圣花乡旅游区",
    "category": "sightseeing",
    "duration_minutes": 120,
    "rating": 4.0,
    "lat": 30.571996,
    "lon": 104.13371,
    "description": "这是成都的热门景点三圣花乡旅游区，是一个著名景点 | 联系电话：028-84676767;028-84678221 | 景点类型：风景名胜 | 建议游览时间：2小时",
    "city": "成都"
  },
  {
    "name": "望江楼公园",
    "category": "outdoor",
    "duration_minutes": 120,
    "rating": 4.0,
    "lat": 30.629277,
    "lon": 104.092217,
    "description": "这是成都的一个自然景点望江楼公园，是一个著名景点 | 联系电话：028-85223389 | 位于：望江路30号 | 景点类型：风景名胜 | 建议游览时间：2小时",
    "city": "成都"
  },
  {
    "name": "成都武侯祠博物馆",
    "category": "museum",
    "duration_minutes": 120,
    "rating": 4.0,
    "lat": 30.646168,
    "lon": 104.047992,
    "description": "这是一座成都的成都武侯祠博物馆，是一个著名景点 | 联系电话：028-85535951 | 位于：武侯祠大街231号 | 景点类型：科教文化服务 | 建议游览时间：2小时",
    "city": "成都"
  },
  {
    "name": "成都SKP中央大台阶",
    "category": "sightseeing",
    "duration_minutes": 120,
    "rating": 4.0,
    "lat": 30.568953,
    "lon": 104.069616,
    "description": "这是成都的热门景点成都SKP中央大台阶，是一个著名景点 | 位于：天府大道1600号(锦城广场东地铁站A口步行80米) | 景点类型：风景名胜 | 建议游览时间：2小时",
    "city": "成都"
  },
  {
    "name": "锦城湖4号公园",
    "category": "outdoor",
    "duration_minutes": 120,
    "rating": 4.0,
    "lat": 30.565324,
    "lon": 104.051545,
    "description": "这是成都的一个自然景点锦城湖4号公园，是一个著名景点 | 位于：锦城湖立交附近 | 景点类型：风景名胜 | 建议游览时间：2小时",
    "city": "成都"
  },
  {
    "name": "交子金融博物馆",
    "category": "museum",
    "duration_minutes": 120,
    "rating": 4.0,
    "lat": 30.582839,
    "lon": 104.076625,
    "description": "这是一座成都的交子金融博物馆，是一个著名景点 | 联系电话：028-60106006 | 位于：桂溪街道锦云东二巷 | 景点类型：科教文化服务 | 建议游览时间：2小时",
    "city": "成都"
  },
  {
    "name": "宽窄巷子景区",
    "category": "sightseeing",
    "duration_minutes": 120,
    "rating": 4.0,
    "lat": 30.663869,
    "lon": 104.053307,
    "description": "这是成都的热门景点宽窄巷子景区，是一个著名景点 | 联系电话：028-86259233;15228966399;+861056320612,16151776 | 位于：栅子街捷隆公寓(宽窄巷子地铁站B口步行60米) | 景点类型：购物服务 | 建议游览时间：2小时",
    "city": "成都"
  },
  {
    "name": "人民公园",
    "category": "outdoor",
    "duration_minutes": 120,
    "rating": 4.0,
    "lat": 30.65699,
    "lon": 104.057641,
    "description": "这是成都的一个自然景点人民公园，是一个著名景点 | 联系电话：028-86132021 | 位于：小南街8号(人民公园地铁站B口步行250米) | 景点类型：风景名胜 | 建议游览时间：2小时",
    "city": "成都"
  },
  {
    "name": "锦城湖2号湖区",
    "category": "outdoor",
    "duration_minutes": 120,
    "rating": 4.0,
    "lat": 30.574282,
    "lon": 104.043112,
    "description": "这是成都的一个自然景点锦城湖2号湖区，是一个著名景点 | 位于：锦城大道1333号锦城湖内(东侧) | 景点类型：风景名胜 | 建议游览时间：2小时",
    "city": "成都"
  },
  {
    "name": "近慈寺",
    "category": "history",
    "duration_minutes": 120,
    "rating": 4.0,
    "lat": 30.574105,
    "lon": 104.047054,
    "description": "这是一个历史悠久的景点近慈寺，是一个著名景点 | 位于：剑南大道北段899号 | 景点类型：风景名胜 | 建议游览时间：2小时",
    "city": "成都"
  },
  {
    "name": "东郊记忆",
    "category": "sightseeing",
    "duration_minutes": 120,
    "rating": 4.0,
    "lat": 30.668697,
    "lon": 104.122906,
    "description": "这是成都的热门景点东郊记忆，是一个著名景点 | 联系电话：028-84121347 | 位于：跳蹬河街道建设南支路1号 | 景点类型：风景名胜 | 建议游览时间：2小时",
    "city": "成都"
  },
  {
    "name": "天府广场",
    "category": "outdoor",
    "duration_minutes": 120,
    "rating": 4.0,
    "lat": 30.657401,
    "lon": 104.065861,
    "description": "这是成都的一个自然景点天府广场，是一个著名景点 | 位于：人民南路一段86号(天府广场地铁站出入口步行50米) | 景点类型：风景名胜 | 建议游览时间：2小时",
    "city": "成都"
  },
  {
    "name": "锦江公园",
    "category": "outdoor",
    "duration_minutes": 120,
    "rating": 4.0,
    "lat": 30.588508,
    "lon": 104.079753,
    "description": "这是成都的一个自然景点锦江公园，是一个著名景点 | 位于：锦江大道与科华南路辅路交叉口东140米 | 景点类型：风景名胜 | 建议游览时间：2小时",
    "city": "成都"
  },
  {
    "name": "成都桂溪公园骑行起点",
    "category": "outdoor",
    "duration_minutes": 120,
    "rating": 4.0,
    "lat": 30.564468,
    "lon": 104.066354,
    "description": "这是成都的一个自然景点成都桂溪公园骑行起点，是一个著名景点 | 位于：桂溪生态公园附近 | 景点类型：风景名胜 | 建议游览时间：2小时",
    "city": "成都"
  },
  {
    "name": "江家艺苑",
    "category": "outdoor",
    "duration_minutes": 120,
    "rating": 4.0,
    "lat": 30.575931,
    "lon": 104.124284,
    "description": "这是成都的一个自然景点江家艺苑，是一个著名景点 | 联系电话：028-84093509;15181268001 | 位于：幸福路163号 | 景点类型：风景名胜 | 建议游览时间：2小时",
    "city": "成都"
  },
  {
    "name": "南湖公园",
    "category": "outdoor",
    "duration_minutes": 120,
    "rating": 4.0,
    "lat": 30.499433,
    "lon": 104.047924,
    "description": "这是成都的一个自然景点南湖公园，是一个著名景点 | 联系电话：17628020618 | 位于：华阳街道南湖北路与南湖东路交叉路口东北角 | 景点类型：风景名胜 | 建议游览时间：2小时",
    "city": "成都"
  },
  {
    "name": "三和老爷车博物馆",
    "category": "museum",
    "duration_minutes": 120,
    "rating": 4.0,
    "lat": 30.597103,
    "lon": 104.04128,
    "description": "这是一座成都的三和老爷车博物馆，是一个著名景点 | 联系电话：028-86051188;18628018878 | 位于：机场路新加坡工业园区新园南一路2号 | 景点类型：科教文化服务 | 建议游览时间：2小时",
    "city": "成都"
  },
  {
    "name": "文殊院",
    "category": "history",
    "duration_minutes": 120,
    "rating": 4.0,
    "lat": 30.675418,
    "lon": 104.072527,
    "description": "这是一个历史悠久的景点文殊院，是一个著名景点 | 联系电话：028-86930623;028-86932375 | 位于：文殊院街66号(文殊院地铁站K口步行400米) | 景点类型：风景名胜 | 建议游览时间：2小时",
    "city": "成都"
  },
  {
    "name": "成都博物馆",
    "category": "museum",
    "duration_minutes": 120,
    "rating": 4.0,
    "lat": 30.657297,
    "lon": 104.063749,
    "description": "这是一座成都的成都博物馆，是一个著名景点 | 联系电话：028-68277011 | 位于：小河街1号 | 景点类型：科教文化服务 | 建议游览时间：2小时",
    "city": "成都"
  },
  {
    "name": "基督教光音堂",
    "category": "sightseeing",
    "duration_minutes": 120,
    "rating": 4.0,
    "lat": 30.56084,
    "lon": 104.049037,
    "description": "这是成都的热门景点基督教光音堂，是一个著名景点 | 联系电话：028-85179217 | 位于：天府一街888号 | 景点类型：风景名胜 | 建议游览时间：2小时",
    "city": "成都"
  },
  {
    "name": "天府芙蓉园",
    "category": "sightseeing",
    "duration_minutes": 120,
    "rating": 4.0,
    "lat": 30.591603,
    "lon": 103.985809,
    "description": "这是成都的热门景点天府芙蓉园，是一个著名景点 | 联系电话：028-60196216 | 位于：簇马路一段69号 | 景点类型：风景名胜 | 建议游览时间：2小时",
    "city": "成都"
  },
  {
    "name": "西蜀廊桥古镇",
    "category": "history",
    "duration_minutes": 120,
    "rating": 4.0,
    "lat": 30.558344,
    "lon": 104.072992,
    "description": "这是一个历史悠久的景点西蜀廊桥古镇，是一个著名景点 | 位于：桂溪街道成都市高新区世纪城路166号附280号 | 景点类型：风景名胜 | 建议游览时间：2小时",
    "city": "成都"
  },
  {
    "name": "美洲四季滑雪场",
    "category": "sightseeing",
    "duration_minutes": 120,
    "rating": 4.0,
    "lat": 30.577959,
    "lon": 104.031617,
    "description": "这是成都的热门景点美洲四季滑雪场，是一个著名景点 | 联系电话：028-65565977 | 位于：高新区锦城大道1999号 | 景点类型：体育休闲服务 | 建议游览时间：2小时",
    "city": "成都"
  },
  {
    "name": "海合安成都极地海洋公园",
    "category": "outdoor",
    "duration_minutes": 120,
    "rating": 4.0,
    "lat": 30.49487,
    "lon": 104.073287,
    "description": "这是成都的一个自然景点海合安成都极地海洋公园，是一个著名景点 | 联系电话：028-66588888 | 位于：天府新区海洋路68号 | 景点类型：风景名胜 | 建议游览时间：2小时",
    "city": "成都"
  },
  {
    "name": "塔子山公园",
    "category": "outdoor",
    "duration_minutes": 120,
    "rating": 4.0,
    "lat": 30.6344,
    "lon": 104.124023,
    "description": "这是成都的一个自然景点塔子山公园，是一个著名景点 | 位于：迎晖路222号(塔子山公园地铁站D口步行293米) | 景点类型：风景名胜 | 建议游览时间：2小时",
    "city": "成都"
  },
  {
    "name": "立巢航空博物馆",
    "category": "museum",
    "duration_minutes": 120,
    "rating": 4.0,
    "lat": 30.569163,
    "lon": 104.060695,
    "description": "这是一座成都的立巢航空博物馆，是一个著名景点 | 联系电话：4009950315 | 位于：天府大道1700号环球中心D馆 | 景点类型：科教文化服务 | 建议游览时间：2小时",
    "city": "成都"
  },
  {
    "name": "幸福梅林",
    "category": "sightseeing",
    "duration_minutes": 120,
    "rating": 4.0,
    "lat": 30.58435,
    "lon": 104.136296,
    "description": "这是成都的热门景点幸福梅林，是一个著名景点 | 联系电话：028-84676767;13540635983 | 位于：锦江大道 | 景点类型：风景名胜 | 建议游览时间：2小时",
    "city": "成都"
  },
  {
    "name": "锦城广场",
    "category": "outdoor",
    "duration_minutes": 120,
    "rating": 4.0,
    "lat": 30.56891,
    "lon": 104.068,
    "description": "这是成都的一个自然景点锦城广场，是一个著名景点 | 位于：天府大道北段1656号 | 景点类型：风景名胜 | 建议游览时间：2小时",
    "city": "成都"
  },
  {
    "name": "锦江体育公园",
    "category": "outdoor",
    "duration_minutes": 120,
    "rating": 4.0,
    "lat": 30.59777,
    "lon": 104.112881,
    "description": "这是成都的一个自然景点锦江体育公园，是一个著名景点 | 位于：委党校斜对面 | 景点类型：风景名胜 | 建议游览时间：2小时",
    "city": "成都"
  },
  {
    "name": "和平社区广场",
    "category": "outdoor",
    "duration_minutes": 120,
    "rating": 4.0,
    "lat": 30.603539,
    "lon": 104.073147,
    "description": "这是成都的一个自然景点和平社区广场，是一个著名景点 | 位于：天仁北一街与天和路交汇处西北50米 | 景点类型：风景名胜 | 建议游览时间：2小时",
    "city": "成都"
  },
  {
    "name": "新川之心公园",
    "category": "outdoor",
    "duration_minutes": 120,
    "rating": 4.0,
    "lat": 30.512549,
    "lon": 104.091046,
    "description": "这是成都的一个自然景点新川之心公园，是一个著名景点 | 位于：高新区新川之心公园内侧园中园 | 景点类型：风景名胜 | 建议游览时间：2小时",
    "city": "成都"
  },
  {
    "name": "桂龙公园",
    "category": "outdoor",
    "duration_minutes": 120,
    "rating": 4.0,
    "lat": 30.54433,
    "lon": 104.074301,
    "description": "这是成都的一个自然景点桂龙公园，是一个著名景点 | 位于：复城国际T2 | 景点类型：风景名胜 | 建议游览时间：2小时",
    "city": "成都"
  },
  {
    "name": "成都大熊猫繁育研究基地",
    "category": "sightseeing",
    "duration_minutes": 120,
    "rating": 4.0,
    "lat": 30.740573,
    "lon": 104.138176,
    "description": "这是成都的热门景点成都大熊猫繁育研究基地，是一个著名景点 | 联系电话：028-83510033 | 位于：熊猫大道1375号 | 景点类型：风景名胜 | 建议游览时间：2小时",
    "city": "成都"
  },
  {
    "name": "大慈寺",
    "category": "history",
    "duration_minutes": 120,
    "rating": 4.0,
    "lat": 30.654243,
    "lon": 104.083791,
    "description": "这是一个历史悠久的景点大慈寺，是一个著名景点 | 联系电话：028-86658341 | 位于：大慈寺路21-23号(春熙路地铁站C口步行360米) | 景点类型：风景名胜 | 建议游览时间：2小时",
    "city": "成都"
  },
  {
    "name": "月牙湖",
    "category": "outdoor",
    "duration_minutes": 120,
    "rating": 4.0,
    "lat": 30.557341,
    "lon": 104.059049,
    "description": "这是成都的一个自然景点月牙湖，是一个著名景点 | 位于：桂溪街道吉庆一路与吉瑞一路交汇处东南角 | 景点类型：风景名胜 | 建议游览时间：2小时",
    "city": "成都"
  },
  {
    "name": "梵木Flying国际文创公园",
    "category": "outdoor",
    "duration_minutes": 120,
    "rating": 4.0,
    "lat": 30.606688,
    "lon": 104.02561,
    "description": "这是成都的一个自然景点梵木Flying国际文创公园，是一个著名景点 | 联系电话：15680863982;19180639927 | 位于：太平寺西路3号 | 景点类型：商务住宅 | 建议游览时间：2小时",
    "city": "成都"
  },
  {
    "name": "成都杜甫草堂博物馆",
    "category": "museum",
    "duration_minutes": 120,
    "rating": 4.0,
    "lat": 30.660153,
    "lon": 104.028514,
    "description": "这是一座成都的成都杜甫草堂博物馆，是一个著名景点 | 联系电话：028-68921800;028-87345202;028-87327392 | 位于：青华路37号 | 景点类型：科教文化服务 | 建议游览时间：2小时",
    "city": "成都"
  },
  {
    "name": "新川之心公园东区",
    "category": "outdoor",
    "duration_minutes": 120,
    "rating": 4.0,
    "lat": 30.512035,
    "lon": 104.094231,
    "description": "这是成都的一个自然景点新川之心公园东区，是一个著名景点 | 位于：高新区锦和路与新裕路交汇处 | 景点类型：风景名胜 | 建议游览时间：2小时",
    "city": "成都"
  },
  {
    "name": "浓园国际艺术村",
    "category": "sightseeing",
    "duration_minutes": 120,
    "rating": 4.0,
    "lat": 30.586479,
    "lon": 103.987174,
    "description": "这是成都的热门景点浓园国际艺术村，是一个著名景点 | 联系电话：028-85023618;028-85013668;13183834367 | 位于：簇桥武侯大道新苗村5组 | 景点类型：风景名胜 | 建议游览时间：2小时",
    "city": "成都"
  },
  {
    "name": "哥谭广场",
    "category": "sightseeing",
    "duration_minutes": 120,
    "rating": 4.0,
    "lat": 30.557769,
    "lon": 104.056296,
    "description": "这是成都的热门景点哥谭广场，是一个著名景点 | 联系电话：13458659728 | 位于：盛安街与益州大道中段交叉口西南40米 | 景点类型：商务住宅 | 建议游览时间：2小时",
    "city": "成都"
  },
  {
    "name": "成都动物园",
    "category": "outdoor",
    "duration_minutes": 120,
    "rating": 4.0,
    "lat": 30.710131,
    "lon": 104.106009,
    "description": "这是成都的一个自然景点成都动物园，是一个著名景点 | 联系电话：028-83516651 | 位于：昭觉寺南路234号(动物园地铁站A口步行460米) | 景点类型：风景名胜 | 建议游览时间：2小时",
    "city": "成都"
  },
  {
    "name": "4号湖入口广场",
    "category": "outdoor",
    "duration_minutes": 120,
    "rating": 4.0,
    "lat": 30.56636,
    "lon": 104.050021,
    "description": "这是成都的一个自然景点4号湖入口广场，是一个著名景点 | 位于：蒙彼利埃小学 | 景点类型：风景名胜 | 建议游览时间：2小时",
    "city": "成都"
  },
  {
    "name": "青羊宫",
    "category": "history",
    "duration_minutes": 120,
    "rating": 4.0,
    "lat": 30.661542,
    "lon": 104.042609,
    "description": "这是一个历史悠久的景点青羊宫，是一个著名景点 | 联系电话：028-87766584 | 位于：一环路西二段9号(青羊宫地铁站C口向后步行90米) | 景点类型：风景名胜 | 建议游览时间：2小时",
    "city": "成都"
  },
  {
    "name": "浣花溪公园",
    "category": "outdoor",
    "duration_minutes": 120,
    "rating": 4.0,
    "lat": 30.657467,
    "lon": 104.029022,
    "description": "这是成都的一个自然景点浣花溪公园，是一个著名景点 | 联系电话：028-87384099 | 位于：草堂街道青华路9号(近杜甫草堂) | 景点类型：风景名胜 | 建议游览时间：2小时",
    "city": "成都"
  },
  {
    "name": "四川博物院",
    "category": "museum",
    "duration_minutes": 120,
    "rating": 4.0,
    "lat": 30.660792,
    "lon": 104.034127,
    "description": "这是一座成都的四川博物院，是一个著名景点 | 联系电话：028-65521888;028-65521581 | 位于：青华路5号 | 景点类型：科教文化服务 | 建议游览时间：2小时",
    "city": "成都"
  },
  {
    "name": "南站公园",
    "category": "outdoor",
    "duration_minutes": 120,
    "rating": 4.0,
    "lat": 30.605697,
    "lon": 104.055389,
    "description": "这是成都的一个自然景点南站公园，是一个著名景点 | 位于：桐梓林壹号4栋2单元603室 | 景点类型：风景名胜 | 建议游览时间：2小时",
    "city": "成都"
  },
  {
    "name": "东安湖体育公园",
    "category": "outdoor",
    "duration_minutes": 120,
    "rating": 4.0,
    "lat": 30.598399,
    "lon": 104.248359,
    "description": "这是成都的一个自然景点东安湖体育公园，是一个著名景点 | 联系电话：028-88424008;028-88462726 | 位于：东安街道体育公园路16号、18号、20号、22号 | 景点类型：体育休闲服务 | 建议游览时间：2小时",
    "city": "成都"
  },
  {
    "name": "桂溪公园东区儿童滑梯",
    "category": "outdoor",
    "duration_minutes": 120,
    "rating": 4.0,
    "lat": 30.562526,
    "lon": 104.071645,
    "description": "这是成都的一个自然景点桂溪公园东区儿童滑梯，是一个著名景点 | 位于：世纪城东路9号桂溪生态公园东区 | 景点类型：风景名胜 | 建议游览时间：2小时",
    "city": "成都"
  },
  {
    "name": "百花潭公园",
    "category": "outdoor",
    "duration_minutes": 120,
    "rating": 4.0,
    "lat": 30.656117,
    "lon": 104.043653,
    "description": "这是成都的一个自然景点百花潭公园，是一个著名景点 | 联系电话：028-87035890 | 位于：芳邻路5号 | 景点类型：风景名胜 | 建议游览时间：2小时",
    "city": "成都"
  },
  {
    "name": "青龙湖湿地公园",
    "category": "outdoor",
    "duration_minutes": 120,
    "rating": 4.0,
    "lat": 30.646345,
    "lon": 104.183631,
    "description": "这是成都的一个自然景点青龙湖湿地公园，是一个著名景点 | 位于：十陵风景区内 | 景点类型：风景名胜 | 建议游览时间：2小时",
    "city": "成都"
  },
  {
    "name": "南湖梦幻岛",
    "category": "outdoor",
    "duration_minutes": 120,
    "rating": 4.0,
    "lat": 30.499033,
    "lon": 104.053915,
    "description": "这是成都的一个自然景点南湖梦幻岛，是一个著名景点 | 联系电话：028-61906688 | 位于：南湖大道588号 | 景点类型：体育休闲服务 | 建议游览时间：2小时",
    "city": "成都"
  },
  {
    "name": "麓湖水城景区",
    "category": "outdoor",
    "duration_minutes": 120,
    "rating": 4.0,
    "lat": 30.458829,
    "lon": 104.064974,
    "description": "这是成都的一个自然景点麓湖水城景区，是一个著名景点 | 联系电话：028-60616886 | 位于：天府新区麓湖中路西段988号 | 景点类型：风景名胜 | 建议游览时间：2小时",
    "city": "成都"
  },
  {
    "name": "四川大学博物馆",
    "category": "museum",
    "duration_minutes": 120,
    "rating": 4.0,
    "lat": 30.636303,
    "lon": 104.090711,
    "description": "这是一座成都的四川大学博物馆，是一个著名景点 | 联系电话：028-85412313 | 位于：望江路19号 | 景点类型：科教文化服务 | 建议游览时间：2小时",
    "city": "成都"
  },
  {
    "name": "夜游锦江(东门码头)",
    "category": "outdoor",
    "duration_minutes": 120,
    "rating": 4.0,
    "lat": 30.649944,
    "lon": 104.086761,
    "description": "这是成都的一个自然景点夜游锦江(东门码头)，是一个著名景点 | 联系电话：028-84542250 | 位于：天仙桥滨河路东门码头夜游锦江售票处 | 景点类型：风景名胜 | 建议游览时间：2小时",
    "city": "成都"
  },
  {
    "name": "沙河东篱翠湖公园",
    "category": "outdoor",
    "duration_minutes": 120,
    "rating": 4.0,
    "lat": 30.608022,
    "lon": 104.091331,
    "description": "这是成都的一个自然景点沙河东篱翠湖公园，是一个著名景点 | 联系电话：028-85954999 | 位于：柳翠路213号 | 景点类型：风景名胜 | 建议游览时间：2小时",
    "city": "成都"
  },
  {
    "name": "东安湖国际旅游度假区",
    "category": "outdoor",
    "duration_minutes": 120,
    "rating": 4.0,
    "lat": 30.590282,
    "lon": 104.246291,
    "description": "这是成都的一个自然景点东安湖国际旅游度假区，是一个著名景点 | 联系电话：028-83476860 | 位于：湖岸北路与文运街交叉口东南420米 | 景点类型：风景名胜 | 建议游览时间：2小时",
    "city": "成都"
  },
  {
    "name": "玉林四巷爱转角文创街区",
    "category": "sightseeing",
    "duration_minutes": 120,
    "rating": 4.0,
    "lat": 30.628406,
    "lon": 104.062104,
    "description": "这是成都的热门景点玉林四巷爱转角文创街区，是一个著名景点 | 位于：玉林街6号附4号 | 景点类型：风景名胜 | 建议游览时间：2小时",
    "city": "成都"
  },
  {
    "name": "簇锦公园",
    "category": "outdoor",
    "duration_minutes": 120,
    "rating": 4.0,
    "lat": 30.609288,
    "lon": 103.997279,
    "description": "这是成都的一个自然景点簇锦公园，是一个著名景点 | 位于：福锦路二段268号 | 景点类型：风景名胜 | 建议游览时间：2小时",
    "city": "成都"
  },
  {
    "name": "成都欢乐谷",
    "category": "sightseeing",
    "duration_minutes": 120,
    "rating": 4.0,
    "lat": 30.719292,
    "lon": 104.032415,
    "description": "这是成都的热门景点成都欢乐谷，是一个著名景点 | 联系电话：028-61898118 | 位于：西华街道西华大道16号 | 景点类型：体育休闲服务 | 建议游览时间：2小时",
    "city": "成都"
  },
  {
    "name": "天府艺术公园",
    "category": "outdoor",
    "duration_minutes": 120,
    "rating": 4.0,
    "lat": 30.711411,
    "lon": 104.022692,
    "description": "这是成都的一个自然景点天府艺术公园，是一个著名景点 | 位于：金泉街道金牛大道金牛坝路388号 | 景点类型：风景名胜 | 建议游览时间：2小时",
    "city": "成都"
  },
  {
    "name": "麓客岛",
    "category": "sightseeing",
    "duration_minutes": 120,
    "rating": 4.0,
    "lat": 30.458846,
    "lon": 104.063457,
    "description": "这是成都的热门景点麓客岛，是一个著名景点 | 联系电话：028-69000118 | 位于：麓湖中路998号 | 景点类型：风景名胜 | 建议游览时间：2小时",
    "city": "成都"
  },
  {
    "name": "新华公园",
    "category": "outdoor",
    "duration_minutes": 120,
    "rating": 4.0,
    "lat": 30.656332,
    "lon": 104.105629,
    "description": "这是成都的一个自然景点新华公园，是一个著名景点 | 位于：双林路87号 | 景点类型：风景名胜 | 建议游览时间：2小时",
    "city": "成都"
  },
  {
    "name": "天府公园",
    "category": "outdoor",
    "duration_minutes": 120,
    "rating": 4.0,
    "lat": 30.432313,
    "lon": 104.072372,
    "description": "这是成都的一个自然景点天府公园，是一个著名景点 | 位于：天府新区天府大道南二段与杭州路交叉口南 | 景点类型：风景名胜 | 建议游览时间：2小时",
    "city": "成都"
  },
  {
    "name": "糖果乐园",
    "category": "outdoor",
    "duration_minutes": 120,
    "rating": 4.0,
    "lat": 30.579844,
    "lon": 104.081226,
    "description": "这是成都的一个自然景点糖果乐园，是一个著名景点 | 位于：科华南路与锦云东四巷交叉口东320米 | 景点类型：风景名胜 | 建议游览时间：2小时",
    "city": "成都"
  },
  {
    "name": "桂溪生态公园(西区)-儿童活动区",
    "category": "outdoor",
    "duration_minutes": 120,
    "rating": 4.0,
    "lat": 30.563212,
    "lon": 104.064289,
    "description": "这是成都的一个自然景点桂溪生态公园(西区)-儿童活动区，是一个著名景点 | 位于：桂溪生态公园西区 | 景点类型：风景名胜 | 建议游览时间：2小时",
    "city": "成都"
  },
  {
    "name": "1906创意工厂",
    "category": "sightseeing",
    "duration_minutes": 120,
    "rating": 4.0,
    "lat": 30.613768,
    "lon": 104.083087,
    "description": "这是成都的热门景点1906创意工厂，是一个著名景点 | 位于：高攀路26号7322厂 | 景点类型：商务住宅 | 建议游览时间：2小时",
    "city": "成都"
  },
  {
    "name": "文化公园",
    "category": "outdoor",
    "duration_minutes": 120,
    "rating": 4.0,
    "lat": 30.660523,
    "lon": 104.043118,
    "description": "这是成都的一个自然景点文化公园，是一个著名景点 | 联系电话：028-87769637 | 位于：琴台路73号(青羊宫地铁站C口旁) | 景点类型：风景名胜 | 建议游览时间：2小时",
    "city": "成都"
  },
  {
    "name": "骑龙中水湿地公园",
    "category": "outdoor",
    "duration_minutes": 120,
    "rating": 4.0,
    "lat": 30.539507,
    "lon": 104.021071,
    "description": "这是成都的一个自然景点骑龙中水湿地公园，是一个著名景点 | 位于：昆华路与老双中路交叉口西南320米 | 景点类型：风景名胜 | 建议游览时间：2小时",
    "city": "成都"
  },
  {
    "name": "双流空港花田",
    "category": "sightseeing",
    "duration_minutes": 120,
    "rating": 4.0,
    "lat": 30.503254,
    "lon": 103.93052,
    "description": "这是成都的热门景点双流空港花田，是一个著名景点 | 联系电话：028-85695326 | 位于：胜利镇牧华路(菜鸟网络成都双流园区东) | 景点类型：风景名胜 | 建议游览时间：2小时",
    "city": "成都"
  },
  {
    "name": "东安湖公园",
    "category": "outdoor",
    "duration_minutes": 120,
    "rating": 4.0,
    "lat": 30.589811,
    "lon": 104.244966,
    "description": "这是成都的一个自然景点东安湖公园，是一个著名景点 | 联系电话：028-83476860 | 位于：龙泉街道都市汽车城大道四段辅路 | 景点类型：风景名胜 | 建议游览时间：2小时",
    "city": "成都"
  },
  {
    "name": "昭觉寺",
    "category": "history",
    "duration_minutes": 120,
    "rating": 4.0,
    "lat": 30.708103,
    "lon": 104.105956,
    "description": "这是一个历史悠久的景点昭觉寺，是一个著名景点 | 联系电话：028-83501419 | 位于：昭青路333号 | 景点类型：风景名胜 | 建议游览时间：2小时",
    "city": "成都"
  },
  {
    "name": "升仙湖公园",
    "category": "outdoor",
    "duration_minutes": 120,
    "rating": 4.0,
    "lat": 30.708547,
    "lon": 104.083924,
    "description": "这是成都的一个自然景点升仙湖公园，是一个著名景点 | 位于：双水碾街道升仙湖北路与双沙桥路交叉口东150米 | 景点类型：风景名胜 | 建议游览时间：2小时",
    "city": "成都"
  },
  {
    "name": "成都自然博物馆",
    "category": "museum",
    "duration_minutes": 120,
    "rating": 4.0,
    "lat": 30.67821,
    "lon": 104.144295,
    "description": "这是一座成都的成都自然博物馆，是一个著名景点 | 联系电话：028-60828500 | 位于：成华大道十里店路88号(十里店地铁站B口步行110米) | 景点类型：科教文化服务 | 建议游览时间：2小时",
    "city": "成都"
  },
  {
    "name": "锦城湖",
    "category": "outdoor",
    "duration_minutes": 120,
    "rating": 4.0,
    "lat": 30.573865,
    "lon": 104.03991,
    "description": "这是成都的一个自然景点锦城湖，是一个著名景点 | 位于：锦城大道1333号 | 景点类型：风景名胜 | 建议游览时间：2小时",
    "city": "成都"
  },
  {
    "name": "锦里古街",
    "category": "sightseeing",
    "duration_minutes": 120,
    "rating": 4.0,
    "lat": 30.645994,
    "lon": 104.049828,
    "description": "这是成都的热门景点锦里古街，是一个著名景点 | 联系电话：028-66311313;028-66311333;028-85538914 | 位于：武侯祠大街231号附1号 | 景点类型：风景名胜 | 建议游览时间：2小时",
    "city": "成都"
  },
  {
    "name": "安顺廊桥",
    "category": "history",
    "duration_minutes": 120,
    "rating": 4.0,
    "lat": 30.641325,
    "lon": 104.085716,
    "description": "这是一个历史悠久的景点安顺廊桥，是一个著名景点 | 位于：滨江东路66号 | 景点类型：风景名胜 | 建议游览时间：2小时",
    "city": "成都"
  },
  {
    "name": "三圣花乡·花乡农居",
    "category": "sightseeing",
    "duration_minutes": 120,
    "rating": 4.0,
    "lat": 30.583761,
    "lon": 104.160874,
    "description": "这是成都的热门景点三圣花乡·花乡农居，是一个著名景点 | 联系电话：028-84676767 | 位于：三圣街道红砂社区136号 | 景点类型：风景名胜 | 建议游览时间：2小时",
    "city": "成都"
  },
  {
    "name": "金沙遗址博物馆(暂停开放)",
    "category": "museum",
    "duration_minutes": 120,
    "rating": 4.0,
    "lat": 30.681709,
    "lon": 104.012634,
    "description": "这是一座成都的金沙遗址博物馆(暂停开放)，是一个著名景点 | 联系电话：028-87303522;028-87303533 | 位于：金沙遗址路2号(金沙博物馆地铁站C口步行200米) | 景点类型：科教文化服务 | 建议游览时间：2小时",
    "city": "成都"
  },
  {
    "name": "庙山广场",
    "category": "outdoor",
    "duration_minutes": 120,
    "rating": 4.0,
    "lat": 30.561072,
    "lon": 104.141176,
    "description": "这是成都的一个自然景点庙山广场，是一个著名景点 | 位于：新兴镇庙山街 | 景点类型：风景名胜 | 建议游览时间：2小时",
    "city": "成都"
  },
  {
    "name": "兴隆湖湿地公园",
    "category": "outdoor",
    "duration_minutes": 120,
    "rating": 4.0,
    "lat": 30.399681,
    "lon": 104.09383,
    "description": "这是成都的一个自然景点兴隆湖湿地公园，是一个著名景点 | 位于：天府新区 | 景点类型：风景名胜 | 建议游览时间：2小时",
    "city": "成都"
  },
  {
    "name": "空港中央公园",
    "category": "outdoor",
    "duration_minutes": 120,
    "rating": 4.0,
    "lat": 30.585804,
    "lon": 103.912622,
    "description": "这是成都的一个自然景点空港中央公园，是一个著名景点 | 位于：航鹰东路与五洞桥北路二段交叉口东北180米 | 景点类型：风景名胜 | 建议游览时间：2小时",
    "city": "成都"
  },
  {
    "name": "棠湖公园",
    "category": "outdoor",
    "duration_minutes": 120,
    "rating": 4.0,
    "lat": 30.570315,
    "lon": 103.918481,
    "description": "这是成都的一个自然景点棠湖公园，是一个著名景点 | 联系电话：028-85803025 | 位于：棠湖西路一段2号 | 景点类型：风景名胜 | 建议游览时间：2小时",
    "city": "成都"
  },
  {
    "name": "北湖生态公园",
    "category": "outdoor",
    "duration_minutes": 120,
    "rating": 4.0,
    "lat": 30.718909,
    "lon": 104.154455,
    "description": "这是成都的一个自然景点北湖生态公园，是一个著名景点 | 联系电话：028-62275604 | 位于：龙潭街道环湖路5号 | 景点类型：风景名胜 | 建议游览时间：2小时",
    "city": "成都"
  },
  {
    "name": "双流区中心公园",
    "category": "outdoor",
    "duration_minutes": 120,
    "rating": 4.0,
    "lat": 30.588206,
    "lon": 103.905719,
    "description": "这是成都的一个自然景点双流区中心公园，是一个著名景点 | 位于：双流普贤村金河路 | 景点类型：风景名胜 | 建议游览时间：2小时",
    "city": "成都"
  },
  {
    "name": "成飞公园",
    "category": "outdoor",
    "duration_minutes": 120,
    "rating": 4.0,
    "lat": 30.69984,
    "lon": 103.956765,
    "description": "这是成都的一个自然景点成飞公园，是一个著名景点 | 联系电话：028-81192636 | 位于：纬一路220号 | 景点类型：风景名胜 | 建议游览时间：2小时",
    "city": "成都"
  },
  {
    "name": "玉石湿地公园",
    "category": "outdoor",
    "duration_minutes": 120,
    "rating": 4.0,
    "lat": 30.607139,
    "lon": 104.195369,
    "description": "这是成都的一个自然景点玉石湿地公园，是一个著名景点 | 位于：大面街道玉石社区5-136 | 景点类型：风景名胜 | 建议游览时间：2小时",
    "city": "成都"
  },
  {
    "name": "易园园林博物馆",
    "category": "museum",
    "duration_minutes": 120,
    "rating": 4.0,
    "lat": 30.71778,
    "lon": 104.014958,
    "description": "这是一座成都的易园园林博物馆，是一个著名景点 | 联系电话：028-87506046;028-87512222 | 位于：金泉路8号 | 景点类型：风景名胜 | 建议游览时间：2小时",
    "city": "成都"
  },
  {
    "name": "神仙树公园",
    "category": "outdoor",
    "duration_minutes": 120,
    "rating": 4.0,
    "lat": 30.612881,
    "lon": 104.047819,
    "description": "这是成都的一个自然景点神仙树公园，是一个著名景点 | 位于：紫荆西路(神仙树地铁站F口步行250米) | 景点类型：风景名胜 | 建议游览时间：2小时",
    "city": "成都"
  },
  {
    "name": "爬墙熊猫",
    "category": "sightseeing",
    "duration_minutes": 120,
    "rating": 4.0,
    "lat": 30.655194,
    "lon": 104.080777,
    "description": "这是成都的热门景点爬墙熊猫，是一个著名景点 | 位于：红星路三段辅路与小科甲巷交叉口东60米 | 景点类型：风景名胜 | 建议游览时间：2小时",
    "city": "成都"
  },
  {
    "name": "二郎山喇叭河旅游景区-成都办事处",
    "category": "outdoor",
    "duration_minutes": 120,
    "rating": 4.0,
    "lat": 30.576124,
    "lon": 104.062033,
    "description": "这是成都的一个自然景点二郎山喇叭河旅游景区-成都办事处，是一个著名景点 | 位于：锦城大道666号奥克斯广场B座 | 景点类型：公司企业 | 建议游览时间：2小时",
    "city": "成都"
  },
  {
    "name": "清水河公园",
    "category": "outdoor",
    "duration_minutes": 120,
    "rating": 4.0,
    "lat": 30.659083,
    "lon": 103.986952,
    "description": "这是成都的一个自然景点清水河公园，是一个著名景点 | 位于：西三环路三段 | 景点类型：风景名胜 | 建议游览时间：2小时",
    "city": "成都"
  },
  {
    "name": "成都市烈士陵园",
    "category": "sightseeing",
    "duration_minutes": 120,
    "rating": 4.0,
    "lat": 30.550796,
    "lon": 104.122689,
    "description": "这是成都的热门景点成都市烈士陵园，是一个著名景点 | 联系电话：028-85936660 | 位于：大安桥路579号 | 景点类型：生活服务 | 建议游览时间：2小时",
    "city": "成都"
  },
  {
    "name": "新怡公园",
    "category": "outdoor",
    "duration_minutes": 120,
    "rating": 4.0,
    "lat": 30.53241,
    "lon": 104.092681,
    "description": "这是成都的一个自然景点新怡公园，是一个著名景点 | 位于：应龙路 | 景点类型：风景名胜 | 建议游览时间：2小时",
    "city": "成都"
  },
  {
    "name": "琴台故径",
    "category": "sightseeing",
    "duration_minutes": 120,
    "rating": 4.0,
    "lat": 30.660197,
    "lon": 104.045772,
    "description": "这是成都的热门景点琴台故径，是一个著名景点 | 位于：琴台路205号(通惠门地铁站E口步行100米) | 景点类型：风景名胜 | 建议游览时间：2小时",
    "city": "成都"
  },
  {
    "name": "成都露天音乐公园",
    "category": "outdoor",
    "duration_minutes": 120,
    "rating": 4.0,
    "lat": 30.726133,
    "lon": 104.078655,
    "description": "这是成都的一个自然景点成都露天音乐公园，是一个著名景点 | 位于：北星大道一段1500号 | 景点类型：风景名胜 | 建议游览时间：2小时",
    "city": "成都"
  },
  {
    "name": "文殊坊",
    "category": "sightseeing",
    "duration_minutes": 120,
    "rating": 4.0,
    "lat": 30.67338,
    "lon": 104.073409,
    "description": "这是成都的热门景点文殊坊，是一个著名景点 | 联系电话：028-86510706 | 位于：草市街街道文殊院大街66号(近省市政务中心) | 景点类型：风景名胜 | 建议游览时间：2小时",
    "city": "成都"
  },
  {
    "name": "蛟龙港活水公园",
    "category": "outdoor",
    "duration_minutes": 120,
    "rating": 4.0,
    "lat": 30.605475,
    "lon": 103.898634,
    "description": "这是成都的一个自然景点蛟龙港活水公园，是一个著名景点 | 位于：蛟龙港余家碾滨江大道四段水口路八段 | 景点类型：风景名胜 | 建议游览时间：2小时",
    "city": "成都"
  },
  {
    "name": "皇城清真寺",
    "category": "sightseeing",
    "duration_minutes": 120,
    "rating": 4.0,
    "lat": 30.65671,
    "lon": 104.062909,
    "description": "这是成都的热门景点皇城清真寺，是一个著名景点 | 位于：小河街2号附2号 | 景点类型：风景名胜 | 建议游览时间：2小时",
    "city": "成都"
  },
  {
    "name": "国际非物质文化遗产博览园",
    "category": "sightseeing",
    "duration_minutes": 120,
    "rating": 4.0,
    "lat": 30.666557,
    "lon": 103.929802,
    "description": "这是成都的热门景点国际非物质文化遗产博览园，是一个著名景点 | 联系电话：028-87077777 | 位于：光华大道二段601号 | 景点类型：风景名胜 | 建议游览时间：2小时",
    "city": "成都"
  },
  {
    "name": "悦动彩林",
    "category": "outdoor",
    "duration_minutes": 120,
    "rating": 4.0,
    "lat": 30.602437,
    "lon": 103.958572,
    "description": "这是成都的一个自然景点悦动彩林，是一个著名景点 | 位于：成双大道旁江安河畔 | 景点类型：风景名胜 | 建议游览时间：2小时",
    "city": "成都"
  },
  {
    "name": "龙潭水乡",
    "category": "sightseeing",
    "duration_minutes": 120,
    "rating": 4.0,
    "lat": 30.687699,
    "lon": 104.181765,
    "description": "这是成都的热门景点龙潭水乡，是一个著名景点 | 位于：航天路88号(近华翰路) | 景点类型：风景名胜 | 建议游览时间：2小时",
    "city": "成都"
  },
  {
    "name": "中和广场",
    "category": "outdoor",
    "duration_minutes": 120,
    "rating": 4.0,
    "lat": 30.552577,
    "lon": 104.087632,
    "description": "这是成都的一个自然景点中和广场，是一个著名景点 | 位于：新下街244号靠近锦华建材家私城 | 景点类型：风景名胜 | 建议游览时间：2小时",
    "city": "成都"
  },
  {
    "name": "锦城湖3号湖区",
    "category": "outdoor",
    "duration_minutes": 120,
    "rating": 4.0,
    "lat": 30.569117,
    "lon": 104.042122,
    "description": "这是成都的一个自然景点锦城湖3号湖区，是一个著名景点 | 位于：剑南大道西侧 | 景点类型：风景名胜 | 建议游览时间：2小时",
    "city": "成都"
  },
  {
    "name": "黄甲广场",
    "category": "outdoor",
    "duration_minutes": 120,
    "rating": 4.0,
    "lat": 30.491038,
    "lon": 103.949315,
    "description": "这是成都的一个自然景点黄甲广场，是一个著名景点 | 位于：黄甲镇黄甲大道48号 | 景点类型：风景名胜 | 建议游览时间：2小时",
    "city": "成都"
  },
  {
    "name": "华阳音乐广场",
    "category": "outdoor",
    "duration_minutes": 120,
    "rating": 4.0,
    "lat": 30.520838,
    "lon": 104.056418,
    "description": "这是成都的一个自然景点华阳音乐广场，是一个著名景点 | 位于：安公路三段 | 景点类型：风景名胜 | 建议游览时间：2小时",
    "city": "成都"
  },
  {
    "name": "合江亭",
    "category": "outdoor",
    "duration_minutes": 120,
    "rating": 4.0,
    "lat": 30.642929,
    "lon": 104.083659,
    "description": "这是成都的一个自然景点合江亭，是一个著名景点 | 位于：滨江东路与天仙桥南路交叉口东南80米 | 景点类型：风景名胜 | 建议游览时间：2小时",
    "city": "成都"
  },
  {
    "name": "火烧堰碧翠廊",
    "category": "sightseeing",
    "duration_minutes": 120,
    "rating": 4.0,
    "lat": 30.626024,
    "lon": 104.053923,
    "description": "这是成都的热门景点火烧堰碧翠廊，是一个著名景点 | 位于：高新区城区(芳草街地铁站D口步行120米) | 景点类型：风景名胜 | 建议游览时间：2小时",
    "city": "成都"
  },
  {
    "name": "成都锦城",
    "category": "outdoor",
    "duration_minutes": 120,
    "rating": 4.0,
    "lat": 30.562731,
    "lon": 104.057586,
    "description": "这是成都的一个自然景点成都锦城，是一个著名景点 | 位于：益州大道中段与天府一街交叉口北260米 | 景点类型：风景名胜 | 建议游览时间：2小时",
    "city": "成都"
  },
  {
    "name": "太古里东广场",
    "category": "outdoor",
    "duration_minutes": 120,
    "rating": 4.0,
    "lat": 30.653124,
    "lon": 104.083786,
    "description": "这是成都的一个自然景点太古里东广场，是一个著名景点 | 位于：纱帽街8号(春熙路地铁站出入口步行410米) | 景点类型：风景名胜 | 建议游览时间：2小时",
    "city": "成都"
  },
  {
    "name": "空港体育公园",
    "category": "outdoor",
    "duration_minutes": 120,
    "rating": 4.0,
    "lat": 30.594153,
    "lon": 103.955803,
    "description": "这是成都的一个自然景点空港体育公园，是一个著名景点 | 位于：成双大道双流空港商务区起步区内 | 景点类型：风景名胜 | 建议游览时间：2小时",
    "city": "成都"
  },
  {
    "name": "凤凰山公园",
    "category": "outdoor",
    "duration_minutes": 120,
    "rating": 4.0,
    "lat": 30.737724,
    "lon": 104.081896,
    "description": "这是成都的一个自然景点凤凰山公园，是一个著名景点 | 位于：熊猫大道西段969号 | 景点类型：风景名胜 | 建议游览时间：2小时",
    "city": "成都"
  },
  {
    "name": "东方莎莉花园",
    "category": "sightseeing",
    "duration_minutes": 120,
    "rating": 4.0,
    "lat": 30.584972,
    "lon": 104.131077,
    "description": "这是成都的热门景点东方莎莉花园，是一个著名景点 | 位于：三圣乡幸福联合7组301号 | 景点类型：餐饮服务 | 建议游览时间：2小时",
    "city": "成都"
  },
  {
    "name": "新川湿地公园",
    "category": "outdoor",
    "duration_minutes": 120,
    "rating": 4.0,
    "lat": 30.526646,
    "lon": 104.106199,
    "description": "这是成都的一个自然景点新川湿地公园，是一个著名景点 | 位于：新通北三路 | 景点类型：风景名胜 | 建议游览时间：2小时",
    "city": "成都"
  },
  {
    "name": "邓小平广场",
    "category": "outdoor",
    "duration_minutes": 120,
    "rating": 4.0,
    "lat": 30.606491,
    "lon": 103.990128,
    "description": "这是成都的一个自然景点邓小平广场，是一个著名景点 | 联系电话：17708029627 | 位于：簇锦北路与玉锦路交叉口西南40米 | 景点类型：风景名胜 | 建议游览时间：2小时",
    "city": "成都"
  },
  {
    "name": "双流广场",
    "category": "outdoor",
    "duration_minutes": 120,
    "rating": 4.0,
    "lat": 30.564376,
    "lon": 103.921356,
    "description": "这是成都的一个自然景点双流广场，是一个著名景点 | 位于：广都大道2号(双流广场地铁站A1口步行170米) | 景点类型：风景名胜 | 建议游览时间：2小时",
    "city": "成都"
  },
  {
    "name": "三圣花乡荷塘月色",
    "category": "sightseeing",
    "duration_minutes": 120,
    "rating": 4.0,
    "lat": 30.567605,
    "lon": 104.158143,
    "description": "这是成都的热门景点三圣花乡荷塘月色，是一个著名景点 | 位于：簧柏路 | 景点类型：风景名胜 | 建议游览时间：2小时",
    "city": "成都"
  },
  {
    "name": "桂溪生态公园-成都锦城绿道",
    "category": "outdoor",
    "duration_minutes": 120,
    "rating": 4.0,
    "lat": 30.563592,
    "lon": 104.078089,
    "description": "这是成都的一个自然景点桂溪生态公园-成都锦城绿道，是一个著名景点 | 位于：桂溪生态公园东区内(东侧) | 景点类型：风景名胜 | 建议游览时间：2小时",
    "city": "成都"
  },
  {
    "name": "麓镇广场",
    "category": "outdoor",
    "duration_minutes": 120,
    "rating": 4.0,
    "lat": 30.483431,
    "lon": 104.093005,
    "description": "这是成都的一个自然景点麓镇广场，是一个著名景点 | 位于：万安街道麓山大道麓山小镇 | 景点类型：风景名胜 | 建议游览时间：2小时",
    "city": "成都"
  },
  {
    "name": "江安河公园",
    "category": "outdoor",
    "duration_minutes": 120,
    "rating": 4.0,
    "lat": 30.537057,
    "lon": 104.005706,
    "description": "这是成都的一个自然景点江安河公园，是一个著名景点 | 位于：滨河路与光电大道交叉口南40米 | 景点类型：风景名胜 | 建议游览时间：2小时",
    "city": "成都"
  },
  {
    "name": "江安河公园",
    "category": "outdoor",
    "duration_minutes": 120,
    "rating": 4.0,
    "lat": 30.537057,
    "lon": 104.005706,
    "description": "这是成都的一个自然景点江安河公园，是一个著名景点 | 位于：滨河路与光电大道交叉口南40米 | 景点类型：风景名胜 | 建议游览时间：2小时",
    "city": "成都"
  },
  {
    "name": "丽都公园",
    "category": "outdoor",
    "duration_minutes": 120,
    "rating": 4.0,
    "lat": 30.628864,
    "lon": 104.036066,
    "description": "这是成都的一个自然景点丽都公园，是一个著名景点 | 位于：丽都路1号(科园地铁站A1口步行410米) | 景点类型：风景名胜 | 建议游览时间：2小时",
    "city": "成都"
  },
  {
    "name": "杜甫草堂-茅屋故居",
    "category": "sightseeing",
    "duration_minutes": 120,
    "rating": 4.0,
    "lat": 30.660655,
    "lon": 104.027718,
    "description": "这是成都的热门景点杜甫草堂-茅屋故居，是一个著名景点 | 位于：草堂路28号成都杜甫草堂博物馆内 | 景点类型：风景名胜 | 建议游览时间：2小时",
    "city": "成都"
  },
  {
    "name": "儿童影视科技博物馆",
    "category": "museum",
    "duration_minutes": 120,
    "rating": 4.0,
    "lat": 30.552988,
    "lon": 104.079792,
    "description": "这是一座成都的儿童影视科技博物馆，是一个著名景点 | 位于：科华南路辅路与梓州大道交叉口西南400米 | 景点类型：科教文化服务 | 建议游览时间：2小时",
    "city": "成都"
  },
  {
    "name": "永安湖旅游景区",
    "category": "outdoor",
    "duration_minutes": 120,
    "rating": 4.0,
    "lat": 30.421804,
    "lon": 103.977792,
    "description": "这是成都的一个自然景点永安湖旅游景区，是一个著名景点 | 位于：生物城中路二段3号 | 景点类型：风景名胜 | 建议游览时间：2小时",
    "city": "成都"
  },
  {
    "name": "怡心湖公园",
    "category": "outdoor",
    "duration_minutes": 120,
    "rating": 4.0,
    "lat": 30.477577,
    "lon": 104.020709,
    "description": "这是成都的一个自然景点怡心湖公园，是一个著名景点 | 位于：华阳街道 | 景点类型：风景名胜 | 建议游览时间：2小时",
    "city": "成都"
  },
  {
    "name": "天府国际动漫城",
    "category": "sightseeing",
    "duration_minutes": 120,
    "rating": 4.0,
    "lat": 30.705738,
    "lon": 104.107574,
    "description": "这是成都的热门景点天府国际动漫城，是一个著名景点 | 联系电话：028-67598666 | 位于：青龙街道西林社区十组 | 景点类型：购物服务 | 建议游览时间：2小时",
    "city": "成都"
  },
  {
    "name": "春熙路IFS爬墙大熊猫打卡点",
    "category": "sightseeing",
    "duration_minutes": 120,
    "rating": 4.0,
    "lat": 30.655441,
    "lon": 104.080816,
    "description": "这是成都的热门景点春熙路IFS爬墙大熊猫打卡点，是一个著名景点 | 位于：成都IFS(春熙路地铁站C口步行220米) | 景点类型：风景名胜 | 建议游览时间：2小时",
    "city": "成都"
  },
  {
    "name": "锦江绿道",
    "category": "outdoor",
    "duration_minutes": 120,
    "rating": 4.0,
    "lat": 30.567325,
    "lon": 104.083527,
    "description": "这是成都的一个自然景点锦江绿道，是一个著名景点 | 位于：G4202成都绕城高速与G4202成都绕城高速入口交叉口西140米 | 景点类型：风景名胜 | 建议游览时间：2小时",
    "city": "成都"
  },
  {
    "name": "龙泉仰天窝",
    "category": "sightseeing",
    "duration_minutes": 120,
    "rating": 4.0,
    "lat": 30.548198,
    "lon": 104.282551,
    "description": "这是成都的热门景点龙泉仰天窝，是一个著名景点 | 位于：318国道山泉镇联合村六组50号 | 景点类型：风景名胜 | 建议游览时间：2小时",
    "city": "成都"
  },
  {
    "name": "人民公园-相亲角",
    "category": "outdoor",
    "duration_minutes": 120,
    "rating": 4.0,
    "lat": 30.657573,
    "lon": 104.056645,
    "description": "这是成都的一个自然景点人民公园-相亲角，是一个著名景点 | 联系电话：028-86139234 | 位于：祠堂街9号人民公园(人民公园地铁站H口步行250米) | 景点类型：风景名胜 | 建议游览时间：2小时",
    "city": "成都"
  },
  {
    "name": "南郊公园",
    "category": "outdoor",
    "duration_minutes": 120,
    "rating": 4.0,
    "lat": 30.6449,
    "lon": 104.046043,
    "description": "这是成都的一个自然景点南郊公园，是一个著名景点 | 联系电话：028-85535951;028-85552397 | 位于：武侯祠大街231号武侯祠景区内 | 景点类型：风景名胜 | 建议游览时间：2小时",
    "city": "成都"
  },
  {
    "name": "永陵公园",
    "category": "outdoor",
    "duration_minutes": 120,
    "rating": 4.0,
    "lat": 30.674447,
    "lon": 104.047296,
    "description": "这是成都的一个自然景点永陵公园，是一个著名景点 | 联系电话：028-87769665;028-87718027 | 位于：永陵路10号 | 景点类型：风景名胜 | 建议游览时间：2小时",
    "city": "成都"
  },
  {
    "name": "芙蓉岛公园",
    "category": "outdoor",
    "duration_minutes": 120,
    "rating": 4.0,
    "lat": 30.55571,
    "lon": 104.084723,
    "description": "这是成都的一个自然景点芙蓉岛公园，是一个著名景点 | 位于：熊家桥路55号 | 景点类型：风景名胜 | 建议游览时间：2小时",
    "city": "成都"
  },
  {
    "name": "东郊记忆成都墙",
    "category": "sightseeing",
    "duration_minutes": 120,
    "rating": 4.0,
    "lat": 30.669697,
    "lon": 104.123288,
    "description": "这是成都的热门景点东郊记忆成都墙，是一个著名景点 | 位于：建设南支路4号-46号楼 | 景点类型：风景名胜 | 建议游览时间：2小时",
    "city": "成都"
  },
  {
    "name": "昭觉寺-第一禅林",
    "category": "history",
    "duration_minutes": 120,
    "rating": 4.0,
    "lat": 30.705981,
    "lon": 104.105909,
    "description": "这是一个历史悠久的景点昭觉寺-第一禅林，是一个著名景点 | 联系电话：028-83501419 | 位于：昭青路333号昭觉寺内(南侧) | 景点类型：风景名胜 | 建议游览时间：2小时",
    "city": "成都"
  },
  {
    "name": "天府熊猫塔(暂停开放)",
    "category": "history",
    "duration_minutes": 120,
    "rating": 4.0,
    "lat": 30.662303,
    "lon": 104.09458,
    "description": "这是一个历史悠久的景点天府熊猫塔(暂停开放)，是一个著名景点 | 位于：猛追湾街168号成都339购物中心 | 景点类型：风景名胜 | 建议游览时间：2小时",
    "city": "成都"
  },
  {
    "name": "梵木创艺区",
    "category": "sightseeing",
    "duration_minutes": 120,
    "rating": 4.0,
    "lat": 30.621954,
    "lon": 104.150358,
    "description": "这是成都的热门景点梵木创艺区，是一个著名景点 | 联系电话：028-86910505 | 位于：悦来街与外东洪路交叉口东南220米 | 景点类型：商务住宅 | 建议游览时间：2小时",
    "city": "成都"
  },
  {
    "name": "成都市植物园",
    "category": "outdoor",
    "duration_minutes": 120,
    "rating": 4.0,
    "lat": 30.763468,
    "lon": 104.128542,
    "description": "这是成都的一个自然景点成都市植物园，是一个著名景点 | 联系电话：028-83583439 | 位于：蓉都大道天回路1116号 | 景点类型：风景名胜 | 建议游览时间：2小时",
    "city": "成都"
  },
  {
    "name": "成都蜀锦织绣博物馆",
    "category": "museum",
    "duration_minutes": 120,
    "rating": 4.0,
    "lat": 30.657296,
    "lon": 104.037045,
    "description": "这是一座成都的成都蜀锦织绣博物馆，是一个著名景点 | 联系电话：028-87337990 | 位于：草堂东路18号锦绣工场古玩城3号楼 | 景点类型：科教文化服务 | 建议游览时间：2小时",
    "city": "成都"
  },
  {
    "name": "成都蜀锦织绣博物馆",
    "category": "museum",
    "duration_minutes": 120,
    "rating": 4.0,
    "lat": 30.657296,
    "lon": 104.037045,
    "description": "这是一座成都的成都蜀锦织绣博物馆，是一个著名景点 | 联系电话：028-87337990 | 位于：草堂东路18号锦绣工场古玩城3号楼 | 景点类型：科教文化服务 | 建议游览时间：2小时",
    "city": "成都"
  },
  {
    "name": "青龙湖二期公园",
    "category": "outdoor",
    "duration_minutes": 120,
    "rating": 4.0,
    "lat": 30.623817,
    "lon": 104.194671,
    "description": "这是成都的一个自然景点青龙湖二期公园，是一个著名景点 | 联系电话：18123234326 | 位于：青龙湖湿地公园(东南角) | 景点类型：风景名胜 | 建议游览时间：2小时",
    "city": "成都"
  },
  {
    "name": "武侯生活广场",
    "category": "outdoor",
    "duration_minutes": 120,
    "rating": 4.0,
    "lat": 30.636814,
    "lon": 104.032067,
    "description": "这是成都的一个自然景点武侯生活广场，是一个著名景点 | 位于：二环路西一段2号 | 景点类型：风景名胜 | 建议游览时间：2小时",
    "city": "成都"
  },
  {
    "name": "铁佛公园",
    "category": "outdoor",
    "duration_minutes": 120,
    "rating": 4.0,
    "lat": 30.616038,
    "lon": 103.990998,
    "description": "这是成都的一个自然景点铁佛公园，是一个著名景点 | 位于：福锦路1段167号附8号 | 景点类型：风景名胜 | 建议游览时间：2小时",
    "city": "成都"
  },
  {
    "name": "漫花庄园(暂停开放)",
    "category": "sightseeing",
    "duration_minutes": 120,
    "rating": 4.0,
    "lat": 30.761951,
    "lon": 104.140799,
    "description": "这是成都的热门景点漫花庄园(暂停开放)，是一个著名景点 | 联系电话：028-83933394;028-83955350;18328721963 | 位于：蜀龙大道1528号 | 景点类型：风景名胜 | 建议游览时间：2小时",
    "city": "成都"
  },
  {
    "name": "荒野之国",
    "category": "sightseeing",
    "duration_minutes": 120,
    "rating": 4.0,
    "lat": 30.455104,
    "lon": 104.064822,
    "description": "这是成都的热门景点荒野之国，是一个著名景点 | 联系电话：028-60616886;19382079206 | 位于：天府新区华阳街道青岛路西段3199号 | 景点类型：购物服务 | 建议游览时间：2小时",
    "city": "成都"
  },
  {
    "name": "浩海立方海洋公园",
    "category": "outdoor",
    "duration_minutes": 120,
    "rating": 4.0,
    "lat": 30.60342,
    "lon": 103.908872,
    "description": "这是成都的一个自然景点浩海立方海洋公园，是一个著名景点 | 联系电话：028-85755566;028-85755588 | 位于：九江街道双楠大道88号1层B101号 | 景点类型：风景名胜 | 建议游览时间：2小时",
    "city": "成都"
  },
  {
    "name": "石人公园",
    "category": "outdoor",
    "duration_minutes": 120,
    "rating": 4.0,
    "lat": 30.675594,
    "lon": 104.029802,
    "description": "这是成都的一个自然景点石人公园，是一个著名景点 | 位于：石人北路2号(白果林地铁站D口步行460米) | 景点类型：风景名胜 | 建议游览时间：2小时",
    "city": "成都"
  },
  {
    "name": "龙泉山观景台",
    "category": "outdoor",
    "duration_minutes": 120,
    "rating": 4.0,
    "lat": 30.557215,
    "lon": 104.307044,
    "description": "这是成都的一个自然景点龙泉山观景台，是一个著名景点 | 位于：美满路 | 景点类型：风景名胜 | 建议游览时间：2小时",
    "city": "成都"
  },
  {
    "name": "活水公园",
    "category": "outdoor",
    "duration_minutes": 120,
    "rating": 4.0,
    "lat": 30.66848,
    "lon": 104.091456,
    "description": "这是成都的一个自然景点活水公园，是一个著名景点 | 联系电话：028-86924981 | 位于：华星路5号(红星桥地铁站A口步行170米) | 景点类型：风景名胜 | 建议游览时间：2小时",
    "city": "成都"
  },
  {
    "name": "成华公园",
    "category": "outdoor",
    "duration_minutes": 120,
    "rating": 4.0,
    "lat": 30.667419,
    "lon": 104.095223,
    "description": "这是成都的一个自然景点成华公园，是一个著名景点 | 位于：猛追湾街22号 | 景点类型：风景名胜 | 建议游览时间：2小时",
    "city": "成都"
  },
  {
    "name": "应天寺",
    "category": "history",
    "duration_minutes": 120,
    "rating": 4.0,
    "lat": 30.532201,
    "lon": 103.910307,
    "description": "这是一个历史悠久的景点应天寺，是一个著名景点 | 位于：胜利镇牧马山麓 | 景点类型：风景名胜 | 建议游览时间：2小时",
    "city": "成都"
  },
  {
    "name": "白云寺",
    "category": "history",
    "duration_minutes": 120,
    "rating": 4.0,
    "lat": 30.484176,
    "lon": 103.893037,
    "description": "这是一个历史悠久的景点白云寺，是一个著名景点 | 位于：柳河路1号 | 景点类型：风景名胜 | 建议游览时间：2小时",
    "city": "成都"
  },
  {
    "name": "交子·极限运动公园",
    "category": "outdoor",
    "duration_minutes": 120,
    "rating": 4.0,
    "lat": 30.576135,
    "lon": 104.089601,
    "description": "这是成都的一个自然景点交子·极限运动公园，是一个著名景点 | 位于：锦华路三段786号 | 景点类型：风景名胜 | 建议游览时间：2小时",
    "city": "成都"
  },
  {
    "name": "宽窄巷子东广场",
    "category": "outdoor",
    "duration_minutes": 120,
    "rating": 4.0,
    "lat": 30.663117,
    "lon": 104.055681,
    "description": "这是成都的一个自然景点宽窄巷子东广场，是一个著名景点 | 位于：长顺上街116号(人民公园地铁站D口步行470米) | 景点类型：风景名胜 | 建议游览时间：2小时",
    "city": "成都"
  },
  {
    "name": "水井街酒坊遗址",
    "category": "history",
    "duration_minutes": 120,
    "rating": 4.0,
    "lat": 30.645027,
    "lon": 104.086004,
    "description": "这是一个历史悠久的景点水井街酒坊遗址，是一个著名景点 | 位于：水井街21号(东门大桥地铁站B口步行430米) | 景点类型：风景名胜 | 建议游览时间：2小时",
    "city": "成都"
  },
  {
    "name": "麻石烟云公园",
    "category": "outdoor",
    "duration_minutes": 120,
    "rating": 4.0,
    "lat": 30.665508,
    "lon": 104.113353,
    "description": "这是成都的一个自然景点麻石烟云公园，是一个著名景点 | 位于：二环路东二段22正东方向130米 | 景点类型：风景名胜 | 建议游览时间：2小时",
    "city": "成都"
  },
  {
    "name": "彭镇古镇",
    "category": "sightseeing",
    "duration_minutes": 120,
    "rating": 4.0,
    "lat": 30.5832,
    "lon": 103.870827,
    "description": "这是成都的热门景点彭镇古镇，是一个著名景点 | 位于：永丰路与黄温路交叉口东北20米 | 景点类型：风景名胜 | 建议游览时间：2小时",
    "city": "成都"
  },
  {
    "name": "百仁城市文化公园",
    "category": "outdoor",
    "duration_minutes": 120,
    "rating": 4.0,
    "lat": 30.691448,
    "lon": 103.994736,
    "description": "这是成都的一个自然景点百仁城市文化公园，是一个著名景点 | 位于：蜀江路与清源一路交叉口东北280米 | 景点类型：风景名胜 | 建议游览时间：2小时",
    "city": "成都"
  },
  {
    "name": "动感熊猫体育公园",
    "category": "outdoor",
    "duration_minutes": 120,
    "rating": 4.0,
    "lat": 30.594312,
    "lon": 104.12115,
    "description": "这是成都的一个自然景点动感熊猫体育公园，是一个著名景点 | 联系电话：19150039601;19150262945 | 位于：锦江大道1488号 | 景点类型：风景名胜 | 建议游览时间：2小时",
    "city": "成都"
  },
  {
    "name": "金牛公园",
    "category": "outdoor",
    "duration_minutes": 120,
    "rating": 4.0,
    "lat": 30.703512,
    "lon": 104.024656,
    "description": "这是成都的一个自然景点金牛公园，是一个著名景点 | 位于：金府路66号 | 景点类型：风景名胜 | 建议游览时间：2小时",
    "city": "成都"
  },
  {
    "name": "龙泉驿欢乐田园",
    "category": "sightseeing",
    "duration_minutes": 120,
    "rating": 4.0,
    "lat": 30.604917,
    "lon": 104.253478,
    "description": "这是成都的热门景点龙泉驿欢乐田园，是一个著名景点 | 联系电话：028-86215633 | 位于：汽车城大道四段 | 景点类型：风景名胜 | 建议游览时间：2小时",
    "city": "成都"
  },
  {
    "name": "广都博物馆",
    "category": "museum",
    "duration_minutes": 120,
    "rating": 4.0,
    "lat": 30.49368,
    "lon": 103.918856,
    "description": "这是一座成都的广都博物馆，是一个著名景点 | 位于：瞿上城路117号 | 景点类型：科教文化服务 | 建议游览时间：2小时",
    "city": "成都"
  },
  {
    "name": "中国小镇(A区)",
    "category": "sightseeing",
    "duration_minutes": 120,
    "rating": 4.0,
    "lat": 30.707265,
    "lon": 103.979305,
    "description": "这是成都的热门景点中国小镇(A区)，是一个著名景点 | 位于：两河路555号 | 景点类型：风景名胜 | 建议游览时间：2小时",
    "city": "成都"
  },
  {
    "name": "万科公园",
    "category": "outdoor",
    "duration_minutes": 120,
    "rating": 4.0,
    "lat": 30.564527,
    "lon": 104.039772,
    "description": "这是成都的一个自然景点万科公园，是一个著名景点 | 位于：盛兴街与盛兴街(西)交叉口西240米 | 景点类型：商务住宅 | 建议游览时间：2小时",
    "city": "成都"
  },
  {
    "name": "二仙桥公园",
    "category": "outdoor",
    "duration_minutes": 120,
    "rating": 4.0,
    "lat": 30.686443,
    "lon": 104.122879,
    "description": "这是成都的一个自然景点二仙桥公园，是一个著名景点 | 位于：仙韵一路133号 | 景点类型：风景名胜 | 建议游览时间：2小时",
    "city": "成都"
  },
  {
    "name": "成都市东部副中心市政景观公园",
    "category": "outdoor",
    "duration_minutes": 120,
    "rating": 4.0,
    "lat": 30.601621,
    "lon": 104.143142,
    "description": "这是成都的一个自然景点成都市东部副中心市政景观公园，是一个著名景点 | 位于：成都市东部副中心 | 景点类型：风景名胜 | 建议游览时间：2小时",
    "city": "成都"
  },
  {
    "name": "洛带古镇",
    "category": "sightseeing",
    "duration_minutes": 120,
    "rating": 4.0,
    "lat": 30.636189,
    "lon": 104.328377,
    "description": "这是成都的热门景点洛带古镇，是一个著名景点 | 联系电话：028-84893693 | 位于：三峨街 | 景点类型：风景名胜 | 建议游览时间：2小时",
    "city": "成都"
  },
  {
    "name": "大源中央公园下沉广场",
    "category": "outdoor",
    "duration_minutes": 120,
    "rating": 4.0,
    "lat": 30.550013,
    "lon": 104.047118,
    "description": "这是成都的一个自然景点大源中央公园下沉广场，是一个著名景点 | 位于：成都高新区天府二街777号大源中央公园(西北角) | 景点类型：风景名胜 | 建议游览时间：2小时",
    "city": "成都"
  },
  {
    "name": "白鹭湾湿地公园观景台",
    "category": "outdoor",
    "duration_minutes": 120,
    "rating": 4.0,
    "lat": 30.567865,
    "lon": 104.130861,
    "description": "这是成都的一个自然景点白鹭湾湿地公园观景台，是一个著名景点 | 位于：聚宝路白鹭湾湿地公园(西侧) | 景点类型：风景名胜 | 建议游览时间：2小时",
    "city": "成都"
  },
  {
    "name": "东站绿轴公园",
    "category": "outdoor",
    "duration_minutes": 120,
    "rating": 4.0,
    "lat": 30.63216,
    "lon": 104.13197,
    "description": "这是成都的一个自然景点东站绿轴公园，是一个著名景点 | 位于：沱江路与九寨沟路交叉口西北80米 | 景点类型：风景名胜 | 建议游览时间：2小时",
    "city": "成都"
  },
  {
    "name": "龙泉山森林绿道高空栈道",
    "category": "outdoor",
    "duration_minutes": 120,
    "rating": 4.0,
    "lat": 30.381712,
    "lon": 104.178723,
    "description": "这是成都的一个自然景点龙泉山森林绿道高空栈道，是一个著名景点 | 位于：白三路与丹寨路交叉口西480米 | 景点类型：风景名胜 | 建议游览时间：2小时",
    "city": "成都"
  },
  {
    "name": "两河城市森林公园",
    "category": "outdoor",
    "duration_minutes": 120,
    "rating": 4.0,
    "lat": 30.717903,
    "lon": 103.968,
    "description": "这是成都的一个自然景点两河城市森林公园，是一个著名景点 | 位于：土龙路38号 | 景点类型：风景名胜 | 建议游览时间：2小时",
    "city": "成都"
  },
  {
    "name": "锦城绿道",
    "category": "sightseeing",
    "duration_minutes": 120,
    "rating": 4.0,
    "lat": 30.572736,
    "lon": 104.11849,
    "description": "这是成都的热门景点锦城绿道，是一个著名景点 | 位于：琉新路与驸江路交叉口北500米 | 景点类型：风景名胜 | 建议游览时间：2小时",
    "city": "成都"
  },
  {
    "name": "天一广场",
    "category": "sightseeing",
    "duration_minutes": 120,
    "rating": 4.0,
    "lat": 30.650853,
    "lon": 104.065581,
    "description": "这是成都的热门景点天一广场，是一个著名景点 | 位于：人民南路二段30号附3(锦江宾馆地铁站A口步行60米) | 景点类型：商务住宅 | 建议游览时间：2小时",
    "city": "成都"
  },
  {
    "name": "成都川剧艺术博物馆(暂停开放)",
    "category": "museum",
    "duration_minutes": 120,
    "rating": 4.0,
    "lat": 30.659687,
    "lon": 104.080315,
    "description": "这是一座成都的成都川剧艺术博物馆(暂停开放)，是一个著名景点 | 位于：华兴正街54号(市二医院地铁站A口步行440米) | 景点类型：科教文化服务 | 建议游览时间：2小时",
    "city": "成都"
  },
  {
    "name": "成都SKP圣诞树森林",
    "category": "outdoor",
    "duration_minutes": 120,
    "rating": 4.0,
    "lat": 30.56747,
    "lon": 104.070315,
    "description": "这是成都的一个自然景点成都SKP圣诞树森林，是一个著名景点 | 位于：濯锦立交桥与G4202成都绕城高速交叉口北180米 | 景点类型：风景名胜 | 建议游览时间：2小时",
    "city": "成都"
  },
  {
    "name": "萌宠乐园",
    "category": "outdoor",
    "duration_minutes": 120,
    "rating": 4.0,
    "lat": 30.619582,
    "lon": 103.943512,
    "description": "这是成都的一个自然景点萌宠乐园，是一个著名景点 | 位于：绕城高速双流段与双楠大道交叉口 | 景点类型：风景名胜 | 建议游览时间：2小时",
    "city": "成都"
  },
  {
    "name": "平澜夕照",
    "category": "sightseeing",
    "duration_minutes": 120,
    "rating": 4.0,
    "lat": 30.57167,
    "lon": 104.045061,
    "description": "这是成都的热门景点平澜夕照，是一个著名景点 | 位于：锦城大道1333号锦城湖(东南角) | 景点类型：风景名胜 | 建议游览时间：2小时",
    "city": "成都"
  },
  {
    "name": "秦皇湖",
    "category": "outdoor",
    "duration_minutes": 120,
    "rating": 4.0,
    "lat": 30.429692,
    "lon": 104.07618,
    "description": "这是成都的一个自然景点秦皇湖，是一个著名景点 | 位于：杭州路东段与蜀州路交叉口西南150米天府公园(东南角) | 景点类型：风景名胜 | 建议游览时间：2小时",
    "city": "成都"
  },
  {
    "name": "会龙公园",
    "category": "outdoor",
    "duration_minutes": 120,
    "rating": 4.0,
    "lat": 30.524171,
    "lon": 104.066449,
    "description": "这是成都的一个自然景点会龙公园，是一个著名景点 | 位于：华阳镇街道华阳绕城路口 | 景点类型：风景名胜 | 建议游览时间：2小时",
    "city": "成都"
  },
  {
    "name": "天府森林公园",
    "category": "outdoor",
    "duration_minutes": 120,
    "rating": 4.0,
    "lat": 30.469362,
    "lon": 104.064592,
    "description": "这是成都的一个自然景点天府森林公园，是一个著名景点 | 位于：华阳镇街道沈阳路东段与东山大道一段交叉口西80米 | 景点类型：风景名胜 | 建议游览时间：2小时",
    "city": "成都"
  },
  {
    "name": "中山广场",
    "category": "outdoor",
    "duration_minutes": 120,
    "rating": 4.0,
    "lat": 30.655146,
    "lon": 104.076988,
    "description": "这是成都的一个自然景点中山广场，是一个著名景点 | 位于：春熙路北段(春熙路地铁站D口步行360米) | 景点类型：风景名胜 | 建议游览时间：2小时",
    "city": "成都"
  },
  {
    "name": "晨辉路公园",
    "category": "outdoor",
    "duration_minutes": 120,
    "rating": 4.0,
    "lat": 30.60634,
    "lon": 104.111579,
    "description": "这是成都的一个自然景点晨辉路公园，是一个著名景点 | 位于：静思南巷与静思里交叉口西南280米 | 景点类型：风景名胜 | 建议游览时间：2小时",
    "city": "成都"
  },
  {
    "name": "金菊广场",
    "category": "outdoor",
    "duration_minutes": 120,
    "rating": 4.0,
    "lat": 30.57619,
    "lon": 104.143662,
    "description": "这是成都的一个自然景点金菊广场，是一个著名景点 | 联系电话：028-84676660 | 位于：赏菊路与东篱路交叉口西北180米 | 景点类型：风景名胜 | 建议游览时间：2小时",
    "city": "成都"
  },
  {
    "name": "银沙滩乐园",
    "category": "sightseeing",
    "duration_minutes": 120,
    "rating": 4.0,
    "lat": 30.582122,
    "lon": 104.232041,
    "description": "这是成都的热门景点银沙滩乐园，是一个著名景点 | 位于：汽车城大道四段辅路东安湖公园(西南角) | 景点类型：体育休闲服务 | 建议游览时间：2小时",
    "city": "成都"
  },
  {
    "name": "成都鸟语林",
    "category": "sightseeing",
    "duration_minutes": 120,
    "rating": 4.0,
    "lat": 30.632627,
    "lon": 104.126443,
    "description": "这是成都的热门景点成都鸟语林，是一个著名景点 | 位于：外东下沙铺43号塔子山公园内(东南角) | 景点类型：风景名胜 | 建议游览时间：2小时",
    "city": "成都"
  },
  {
    "name": "多乐岛运动游乐城(金牛店)",
    "category": "sightseeing",
    "duration_minutes": 120,
    "rating": 4.0,
    "lat": 30.709117,
    "lon": 104.064699,
    "description": "这是成都的热门景点多乐岛运动游乐城(金牛店)，是一个著名景点 | 联系电话：028-87777929 | 位于：五块石路1号27栋1层龙湖北城天街A馆5楼Z1号 | 景点类型：体育休闲服务 | 建议游览时间：2小时",
    "city": "成都"
  },
  {
    "name": "一片森林儿童亲子乐园(暂停营业)",
    "category": "outdoor",
    "duration_minutes": 120,
    "rating": 4.0,
    "lat": 30.462719,
    "lon": 104.056783,
    "description": "这是成都的一个自然景点一片森林儿童亲子乐园(暂停营业)，是一个著名景点 | 联系电话：19950274531 | 位于：华阳街道天津路西段899号 | 景点类型：体育休闲服务 | 建议游览时间：2小时",
    "city": "成都"
  },
  {
    "name": "蜀绣公园",
    "category": "outdoor",
    "duration_minutes": 120,
    "rating": 4.0,
    "lat": 30.768811,
    "lon": 104.010036,
    "description": "这是成都的一个自然景点蜀绣公园，是一个著名景点 | 位于：成都市郫都区安靖镇高桥村金河路350号附3-4号 | 景点类型：风景名胜 | 建议游览时间：2小时",
    "city": "成都"
  },
  {
    "name": "鹿溪河生态区",
    "category": "sightseeing",
    "duration_minutes": 120,
    "rating": 4.0,
    "lat": 30.415394,
    "lon": 104.086791,
    "description": "这是成都的热门景点鹿溪河生态区，是一个著名景点 | 位于：蜀州路 | 景点类型：风景名胜 | 建议游览时间：2小时",
    "city": "成都"
  },
  {
    "name": "大熊猫6号别墅",
    "category": "sightseeing",
    "duration_minutes": 120,
    "rating": 4.0,
    "lat": 30.736354,
    "lon": 104.143231,
    "description": "这是成都的热门景点大熊猫6号别墅，是一个著名景点 | 位于：外北三环熊猫大道1375号成都大熊猫繁育研究基地内(东南角) | 景点类型：风景名胜 | 建议游览时间：2小时",
    "city": "成都"
  },
  {
    "name": "保利198公园",
    "category": "outdoor",
    "duration_minutes": 120,
    "rating": 4.0,
    "lat": 30.743434,
    "lon": 104.148313,
    "description": "这是成都的一个自然景点保利198公园，是一个著名景点 | 位于：蜀龙大道南段1752号 | 景点类型：风景名胜 | 建议游览时间：2小时",
    "city": "成都"
  },
  {
    "name": "云朵乐园",
    "category": "sightseeing",
    "duration_minutes": 120,
    "rating": 4.0,
    "lat": 30.46373,
    "lon": 104.064414,
    "description": "这是成都的热门景点云朵乐园，是一个著名景点 | 位于：麓湖生态城内 | 景点类型：体育休闲服务 | 建议游览时间：2小时",
    "city": "成都"
  },
  {
    "name": "秀丽东方",
    "category": "sightseeing",
    "duration_minutes": 120,
    "rating": 4.0,
    "lat": 30.579293,
    "lon": 104.131431,
    "description": "这是成都的热门景点秀丽东方，是一个著名景点 | 位于：幸福联合七组308号 | 景点类型：风景名胜 | 建议游览时间：2小时",
    "city": "成都"
  },
  {
    "name": "观景楼",
    "category": "sightseeing",
    "duration_minutes": 120,
    "rating": 4.0,
    "lat": 30.657768,
    "lon": 104.040258,
    "description": "这是成都的热门景点观景楼，是一个著名景点 | 位于：一环路西一段166号(青羊宫地铁站C口步行250米) | 景点类型：商务住宅 | 建议游览时间：2小时",
    "city": "成都"
  },
  {
    "name": "火车头广场",
    "category": "outdoor",
    "duration_minutes": 120,
    "rating": 4.0,
    "lat": 30.668202,
    "lon": 104.124609,
    "description": "这是成都的一个自然景点火车头广场，是一个著名景点 | 联系电话：13096395545 | 位于：跳蹬河街道建设南支路1号东郊记忆内(东侧) | 景点类型：风景名胜 | 建议游览时间：2小时",
    "city": "成都"
  },
  {
    "name": "麓湖生态城红石公园",
    "category": "outdoor",
    "duration_minutes": 120,
    "rating": 4.0,
    "lat": 30.459281,
    "lon": 104.078571,
    "description": "这是成都的一个自然景点麓湖生态城红石公园，是一个著名景点 | 位于：麓湖生态城云树 | 景点类型：风景名胜 | 建议游览时间：2小时",
    "city": "成都"
  },
  {
    "name": "沙河公园(萃锦东路)",
    "category": "outdoor",
    "duration_minutes": 120,
    "rating": 4.0,
    "lat": 30.616618,
    "lon": 104.10833,
    "description": "这是成都的一个自然景点沙河公园(萃锦东路)，是一个著名景点 | 联系电话：028-83128995 | 位于：观音桥街74号-附12号 | 景点类型：风景名胜 | 建议游览时间：2小时",
    "city": "成都"
  },
  {
    "name": "毛主席像",
    "category": "sightseeing",
    "duration_minutes": 120,
    "rating": 4.0,
    "lat": 30.658808,
    "lon": 104.065851,
    "description": "这是成都的热门景点毛主席像，是一个著名景点 | 位于：人民中路一段16号(天府广场地铁站出入口步行140米) | 景点类型：风景名胜 | 建议游览时间：2小时",
    "city": "成都"
  }
]